[
    {
        "id": "1",
        "latitude": "34° 31' 24.924",
        "longitude": "50° 0' 20.866",
        "lat_decimal": "34.5235900",
        "lon_decimal": "50.0057961",
        "province": "مرکزی",
        "state": "آشتیان",
        "city": "آشتیان"
    },
    {
        "id": "2",
        "latitude": "33° 40' 29.197",
        "longitude": "49° 52' 38.759",
        "lat_decimal": "33.6747769",
        "lon_decimal": "49.8774331",
        "province": "مرکزی",
        "state": "خمین",
        "city": "قورچی باشی"
    },
    {
        "id": "3",
        "latitude": "34° 41' 6.076",
        "longitude": "50° 1' 21.457",
        "lat_decimal": "34.6850211",
        "lon_decimal": "50.0226269",
        "province": "مرکزی",
        "state": "تفرش",
        "city": "تفرش"
    },
    {
        "id": "4",
        "latitude": "33° 38' 27.877",
        "longitude": "50° 4' 49.109",
        "lat_decimal": "33.6410769",
        "lon_decimal": "50.0803081",
        "province": "مرکزی",
        "state": "خمین",
        "city": "خمین"
    },
    {
        "id": "5",
        "latitude": "33° 59' 25.282",
        "longitude": "50° 40' 53.965",
        "lat_decimal": "33.9903561",
        "lon_decimal": "50.6816569",
        "province": "مرکزی",
        "state": "دلیجان",
        "city": "دلیجان"
    },
    {
        "id": "6",
        "latitude": "34° 0' 42.156",
        "longitude": "50° 50' 16.699",
        "lat_decimal": "34.0117100",
        "lon_decimal": "50.8379719",
        "province": "مرکزی",
        "state": "دلیجان",
        "city": "نراق"
    },
    {
        "id": "7",
        "latitude": "35° 1' 31.195",
        "longitude": "50° 21' 53.716",
        "lat_decimal": "35.0253319",
        "lon_decimal": "50.3649211",
        "province": "مرکزی",
        "state": "ساوه",
        "city": "ساوه"
    },
    {
        "id": "8",
        "latitude": "35° 1' 31.195",
        "longitude": "50° 21' 53.716",
        "lat_decimal": "35.0253319",
        "lon_decimal": "50.3649211",
        "province": "مرکزی",
        "state": "ساوه",
        "city": "آوه"
    },
    {
        "id": "9",
        "latitude": "35° 6' 3.812",
        "longitude": "49° 49' 49.955",
        "lat_decimal": "35.1010589",
        "lon_decimal": "49.8305431",
        "province": "مرکزی",
        "state": "ساوه",
        "city": "غرق آباد"
    },
    {
        "id": "10",
        "latitude": "35° 7' 47.798",
        "longitude": "49° 42' 33.228",
        "lat_decimal": "35.1299439",
        "lon_decimal": "49.7092300",
        "province": "مرکزی",
        "state": "ساوه",
        "city": "نوبران"
    },
    {
        "id": "11",
        "latitude": "33° 53' 18.445",
        "longitude": "49° 21' 7.279",
        "lat_decimal": "33.8884569",
        "lon_decimal": "49.3520219",
        "province": "مرکزی",
        "state": "شازند",
        "city": "آستانه"
    },
    {
        "id": "12",
        "latitude": "33° 56' 1.324",
        "longitude": "49° 24' 39.157",
        "lat_decimal": "33.9337011",
        "lon_decimal": "49.4108769",
        "province": "مرکزی",
        "state": "شازند",
        "city": "شازند"
    },
    {
        "id": "13",
        "latitude": "33° 46' 46.060",
        "longitude": "49° 13' 51.121",
        "lat_decimal": "33.7794611",
        "lon_decimal": "49.2308669",
        "province": "مرکزی",
        "state": "شازند",
        "city": "هندودر"
    },
    {
        "id": "14",
        "latitude": "33° 56' 1.324",
        "longitude": "49° 24' 39.157",
        "lat_decimal": "33.9337011",
        "lon_decimal": "49.4108769",
        "province": "مرکزی",
        "state": "شازند",
        "city": "مهاجران"
    },
    {
        "id": "15",
        "latitude": "34° 2' 46.046",
        "longitude": "49° 17' 19.680",
        "lat_decimal": "34.0461239",
        "lon_decimal": "49.2888000",
        "province": "مرکزی",
        "state": "شازند",
        "city": "توره"
    },
    {
        "id": "16",
        "latitude": "33° 56' 1.324",
        "longitude": "49° 24' 39.157",
        "lat_decimal": "33.9337011",
        "lon_decimal": "49.4108769",
        "province": "مرکزی",
        "state": "شازند",
        "city": "شهباز"
    },
    {
        "id": "17",
        "latitude": "33° 54' 30.172",
        "longitude": "50° 27' 14.922",
        "lat_decimal": "33.9083811",
        "lon_decimal": "50.4541450",
        "province": "مرکزی",
        "state": "محلات",
        "city": "محلات"
    },
    {
        "id": "18",
        "latitude": "33° 53' 12.901",
        "longitude": "50° 34' 25.072",
        "lat_decimal": "33.8869169",
        "lon_decimal": "50.5736311",
        "province": "مرکزی",
        "state": "محلات",
        "city": "نیمور"
    },
    {
        "id": "19",
        "latitude": "35° 19' 51.920",
        "longitude": "49° 57' 21.330",
        "lat_decimal": "35.3310889",
        "lon_decimal": "49.9559250",
        "province": "مرکزی",
        "state": "زرندیه",
        "city": "رازقان"
    },
    {
        "id": "20",
        "latitude": "35° 22' 19.578",
        "longitude": "50° 34' 13.271",
        "lat_decimal": "35.3721050",
        "lon_decimal": "50.5703531",
        "province": "مرکزی",
        "state": "زرندیه",
        "city": "زاویه"
    },
    {
        "id": "21",
        "latitude": "",
        "longitude": "",
        "lat_decimal": null,
        "lon_decimal": null,
        "province": "مرکزی",
        "state": "زرندیه",
        "city": "مامونیه"
    },
    {
        "id": "22",
        "latitude": "35° 23' 58.438",
        "longitude": "50° 20' 8.185",
        "lat_decimal": "35.3995661",
        "lon_decimal": "50.3356069",
        "province": "مرکزی",
        "state": "زرندیه",
        "city": "خشکرود"
    },
    {
        "id": "23",
        "latitude": "35° 21' 34.236",
        "longitude": "50° 40' 50.074",
        "lat_decimal": "35.3595100",
        "lon_decimal": "50.6805761",
        "province": "مرکزی",
        "state": "زرندیه",
        "city": "پرندک"
    },
    {
        "id": "24",
        "latitude": "34° 43' 8.846",
        "longitude": "49° 19' 20.410",
        "lat_decimal": "34.7191239",
        "lon_decimal": "49.3223361",
        "province": "مرکزی",
        "state": "کمیجان",
        "city": "کمیجان"
    },
    {
        "id": "25",
        "latitude": "34° 37' 16.586",
        "longitude": "49° 12' 34.495",
        "lat_decimal": "34.6212739",
        "lon_decimal": "49.2095819",
        "province": "مرکزی",
        "state": "کمیجان",
        "city": "میلاجرد"
    },
    {
        "id": "26",
        "latitude": "34° 15' 23.803",
        "longitude": "49° 19' 37.164",
        "lat_decimal": "34.2566119",
        "lon_decimal": "49.3269900",
        "province": "مرکزی",
        "state": "خنداب",
        "city": "جاورسیان"
    },
    {
        "id": "27",
        "latitude": "34° 23' 0.413",
        "longitude": "49° 11' 20.195",
        "lat_decimal": "34.3834481",
        "lon_decimal": "49.1889431",
        "province": "مرکزی",
        "state": "خنداب",
        "city": "خنداب"
    },
    {
        "id": "28",
        "latitude": "34° 29' 45.708",
        "longitude": "49° 41' 3.736",
        "lat_decimal": "34.4960300",
        "lon_decimal": "49.6843711",
        "province": "مرکزی",
        "state": "فراهان",
        "city": "فرمهین"
    },
    {
        "id": "29",
        "latitude": "",
        "longitude": "",
        "lat_decimal": null,
        "lon_decimal": null,
        "province": "مرکزی",
        "state": "فراهان",
        "city": "خنجین"
    },
    {
        "id": "30",
        "latitude": "34° 5' 36.413",
        "longitude": "49° 43' 19.564",
        "lat_decimal": "34.0934481",
        "lon_decimal": "49.7221011",
        "province": "مرکزی",
        "state": "اراک",
        "city": "اراک"
    },
    {
        "id": "31",
        "latitude": "34° 17' 36.571",
        "longitude": "49° 51' 18.360",
        "lat_decimal": "34.2934919",
        "lon_decimal": "49.8551000",
        "province": "مرکزی",
        "state": "اراک",
        "city": "داودآباد"
    },
    {
        "id": "32",
        "latitude": "34° 24' 28.555",
        "longitude": "49° 30' 27.666",
        "lat_decimal": "34.4079319",
        "lon_decimal": "49.5076850",
        "province": "مرکزی",
        "state": "اراک",
        "city": "ساروق"
    },
    {
        "id": "33",
        "latitude": "34° 5' 36.413",
        "longitude": "49° 43' 19.564",
        "lat_decimal": "34.0934481",
        "lon_decimal": "49.7221011",
        "province": "مرکزی",
        "state": "اراک",
        "city": "کارچان"
    },
    {
        "id": "34",
        "latitude": "38° 23' 13.844",
        "longitude": "48° 52' 9.293",
        "lat_decimal": "38.3871789",
        "lon_decimal": "48.8692481",
        "province": "گیلان",
        "state": "آستارا",
        "city": "آستارا"
    },
    {
        "id": "35",
        "latitude": "38° 18' 33.365",
        "longitude": "48° 51' 48.568",
        "lat_decimal": "38.3092681",
        "lon_decimal": "48.8634911",
        "province": "گیلان",
        "state": "آستارا",
        "city": "لوندویل"
    },
    {
        "id": "36",
        "latitude": "37° 25' 20.406",
        "longitude": "49° 55' 49.919",
        "lat_decimal": "37.4223350",
        "lon_decimal": "49.9305331",
        "province": "گیلان",
        "state": "آستانه اشرفیه",
        "city": "کیاشهر"
    },
    {
        "id": "37",
        "latitude": "37° 15' 48.931",
        "longitude": "49° 56' 41.669",
        "lat_decimal": "37.2635919",
        "lon_decimal": "49.9449081",
        "province": "گیلان",
        "state": "آستانه اشرفیه",
        "city": "آستانه اشرفیه"
    },
    {
        "id": "38",
        "latitude": "37° 28' 0.142",
        "longitude": "49° 27' 45.724",
        "lat_decimal": "37.4667061",
        "lon_decimal": "49.4627011",
        "province": "گیلان",
        "state": "بندرانزلی",
        "city": "بندرانزلی"
    },
    {
        "id": "39",
        "latitude": "37° 22' 55.747",
        "longitude": "49° 39' 6.642",
        "lat_decimal": "37.3821519",
        "lon_decimal": "49.6518450",
        "province": "گیلان",
        "state": "رشت",
        "city": "خمام"
    },
    {
        "id": "40",
        "latitude": "37° 12' 8.618",
        "longitude": "50° 0' 38.948",
        "lat_decimal": "37.2023939",
        "lon_decimal": "50.0108189",
        "province": "گیلان",
        "state": "لاهیجان",
        "city": "لاهیجان"
    },
    {
        "id": "41",
        "latitude": "37° 15' 23.735",
        "longitude": "50° 0' 29.538",
        "lat_decimal": "37.2565931",
        "lon_decimal": "50.0082050",
        "province": "گیلان",
        "state": "لاهیجان",
        "city": "رودبنه"
    },
    {
        "id": "42",
        "latitude": "37° 7' 57.533",
        "longitude": "50° 18' 0.914",
        "lat_decimal": "37.1326481",
        "lon_decimal": "50.3002539",
        "province": "گیلان",
        "state": "رودسر",
        "city": "رودسر"
    },
    {
        "id": "43",
        "latitude": "38° 9' 15.196",
        "longitude": "48° 53' 25.246",
        "lat_decimal": "38.1542211",
        "lon_decimal": "48.8903461",
        "province": "گیلان",
        "state": "طوالش",
        "city": "حویق"
    },
    {
        "id": "44",
        "latitude": "37° 5' 22.657",
        "longitude": "49° 25' 18.570",
        "lat_decimal": "37.0896269",
        "lon_decimal": "49.4218250",
        "province": "گیلان",
        "state": "طوالش",
        "city": "چوبر"
    },
    {
        "id": "45",
        "latitude": "37° 17' 2.929",
        "longitude": "49° 35' 25.465",
        "lat_decimal": "37.2841469",
        "lon_decimal": "49.5904069",
        "province": "گیلان",
        "state": "رشت",
        "city": "رشت"
    },
    {
        "id": "46",
        "latitude": "37° 22' 26.929",
        "longitude": "49° 45' 31.306",
        "lat_decimal": "37.3741469",
        "lon_decimal": "49.7586961",
        "province": "گیلان",
        "state": "رشت",
        "city": "خشکبیجار"
    },
    {
        "id": "47",
        "latitude": "37° 10' 44.908",
        "longitude": "49° 41' 51.781",
        "lat_decimal": "37.1791411",
        "lon_decimal": "49.6977169",
        "province": "گیلان",
        "state": "رشت",
        "city": "سنگر"
    },
    {
        "id": "48",
        "latitude": "37° 16' 37.787",
        "longitude": "49° 46' 5.304",
        "lat_decimal": "37.2771631",
        "lon_decimal": "49.7681400",
        "province": "گیلان",
        "state": "رشت",
        "city": "کوچصفهان"
    },
    {
        "id": "49",
        "latitude": "37° 15' 8.464",
        "longitude": "49° 49' 30.299",
        "lat_decimal": "37.2523511",
        "lon_decimal": "49.8250831",
        "province": "گیلان",
        "state": "رشت",
        "city": "لولمان"
    },
    {
        "id": "50",
        "latitude": "37° 21' 44.593",
        "longitude": "49° 51' 42.638",
        "lat_decimal": "37.3623869",
        "lon_decimal": "49.8618439",
        "province": "گیلان",
        "state": "رشت",
        "city": "لشت نشاء"
    },
    {
        "id": "51",
        "latitude": "36° 58' 28.697",
        "longitude": "50° 33' 16.996",
        "lat_decimal": "36.9746381",
        "lon_decimal": "50.5547211",
        "province": "گیلان",
        "state": "رودسر",
        "city": "چابکسر"
    },
    {
        "id": "52",
        "latitude": "37° 4' 28.848",
        "longitude": "50° 23' 57.851",
        "lat_decimal": "37.0746800",
        "lon_decimal": "50.3994031",
        "province": "گیلان",
        "state": "رودسر",
        "city": "کلاچای"
    },
    {
        "id": "53",
        "latitude": "37° 2' 30.304",
        "longitude": "50° 24' 49.464",
        "lat_decimal": "37.0417511",
        "lon_decimal": "50.4137400",
        "province": "گیلان",
        "state": "رودسر",
        "city": "واجارگاه"
    },
    {
        "id": "54",
        "latitude": "37° 17' 0.964",
        "longitude": "49° 22' 46.146",
        "lat_decimal": "37.2836011",
        "lon_decimal": "49.3794850",
        "province": "گیلان",
        "state": "صومعه سرا",
        "city": "مرجقل"
    },
    {
        "id": "55",
        "latitude": "",
        "longitude": "",
        "lat_decimal": null,
        "lon_decimal": null,
        "province": "گیلان",
        "state": "طوالش",
        "city": "هشتپر (تالش)"
    },
    {
        "id": "56",
        "latitude": "37° 56' 14.953",
        "longitude": "48° 54' 58.450",
        "lat_decimal": "37.9374869",
        "lon_decimal": "48.9162361",
        "province": "گیلان",
        "state": "طوالش",
        "city": "لیسار"
    },
    {
        "id": "57",
        "latitude": "37° 44' 8.534",
        "longitude": "48° 56' 45.139",
        "lat_decimal": "37.7357039",
        "lon_decimal": "48.9458719",
        "province": "گیلان",
        "state": "طوالش",
        "city": "اسالم"
    },
    {
        "id": "58",
        "latitude": "36° 53' 38.080",
        "longitude": "49° 31' 32.405",
        "lat_decimal": "36.8939111",
        "lon_decimal": "49.5256681",
        "province": "گیلان",
        "state": "رودبار",
        "city": "توتکابن"
    },
    {
        "id": "59",
        "latitude": "36° 42' 4.781",
        "longitude": "49° 47' 26.020",
        "lat_decimal": "36.7013281",
        "lon_decimal": "49.7905611",
        "province": "گیلان",
        "state": "رودبار",
        "city": "جیرنده"
    },
    {
        "id": "60",
        "latitude": "36° 37' 52.518",
        "longitude": "49° 30' 53.179",
        "lat_decimal": "36.6312550",
        "lon_decimal": "49.5147719",
        "province": "گیلان",
        "state": "رودبار",
        "city": "لوشان"
    },
    {
        "id": "61",
        "latitude": "36° 48' 23.969",
        "longitude": "49° 25' 8.306",
        "lat_decimal": "36.8066581",
        "lon_decimal": "49.4189739",
        "province": "گیلان",
        "state": "رودبار",
        "city": "رودبار"
    },
    {
        "id": "62",
        "latitude": "36° 44' 28.669",
        "longitude": "49° 25' 6.748",
        "lat_decimal": "36.7412969",
        "lon_decimal": "49.4185411",
        "province": "گیلان",
        "state": "رودبار",
        "city": "منجیل"
    },
    {
        "id": "63",
        "latitude": "36° 53' 2.659",
        "longitude": "49° 29' 29.670",
        "lat_decimal": "36.8840719",
        "lon_decimal": "49.4915750",
        "province": "گیلان",
        "state": "رودبار",
        "city": "رستم آباد"
    },
    {
        "id": "64",
        "latitude": "37° 33' 2.009",
        "longitude": "49° 8' 22.931",
        "lat_decimal": "37.5505581",
        "lon_decimal": "49.1397031",
        "province": "گیلان",
        "state": "رضوانشهر",
        "city": "رضوانشهر"
    },
    {
        "id": "65",
        "latitude": "37° 2' 59.183",
        "longitude": "50° 14' 11.346",
        "lat_decimal": "37.0497731",
        "lon_decimal": "50.2364850",
        "province": "گیلان",
        "state": "املش",
        "city": "رانکوه"
    },
    {
        "id": "66",
        "latitude": "37° 5' 13.956",
        "longitude": "50° 11' 27.708",
        "lat_decimal": "37.0872100",
        "lon_decimal": "50.1910300",
        "province": "گیلان",
        "state": "املش",
        "city": "املش"
    },
    {
        "id": "67",
        "latitude": "37° 36' 12.348",
        "longitude": "49° 4' 9.768",
        "lat_decimal": "37.6034300",
        "lon_decimal": "49.0693800",
        "province": "گیلان",
        "state": "رضوانشهر",
        "city": "پره سر"
    },
    {
        "id": "68",
        "latitude": "37° 1' 59.398",
        "longitude": "50° 20' 13.391",
        "lat_decimal": "37.0331661",
        "lon_decimal": "50.3370531",
        "province": "گیلان",
        "state": "رودسر",
        "city": "رحیم آباد"
    },
    {
        "id": "69",
        "latitude": "36° 46' 36.214",
        "longitude": "49° 45' 8.672",
        "lat_decimal": "36.7767261",
        "lon_decimal": "49.7524089",
        "province": "گیلان",
        "state": "رودبار",
        "city": "بره سر"
    },
    {
        "id": "70",
        "latitude": "37° 18' 10.202",
        "longitude": "49° 19' 12.432",
        "lat_decimal": "37.3028339",
        "lon_decimal": "49.3201200",
        "province": "گیلان",
        "state": "صومعه سرا",
        "city": "صومعه سرا"
    },
    {
        "id": "71",
        "latitude": "37° 18' 0.576",
        "longitude": "49° 13' 7.079",
        "lat_decimal": "37.3001600",
        "lon_decimal": "49.2186331",
        "province": "گیلان",
        "state": "صومعه سرا",
        "city": "گوراب زرمیخ"
    },
    {
        "id": "72",
        "latitude": "37° 13' 32.527",
        "longitude": "49° 18' 39.600",
        "lat_decimal": "37.2257019",
        "lon_decimal": "49.3110000",
        "province": "گیلان",
        "state": "فومن",
        "city": "فومن"
    },
    {
        "id": "73",
        "latitude": "37° 9' 21.737",
        "longitude": "48° 59' 21.768",
        "lat_decimal": "37.1560381",
        "lon_decimal": "48.9893800",
        "province": "گیلان",
        "state": "فومن",
        "city": "ماسوله"
    },
    {
        "id": "74",
        "latitude": "37° 13' 32.527",
        "longitude": "49° 18' 39.600",
        "lat_decimal": "37.2257019",
        "lon_decimal": "49.3110000",
        "province": "گیلان",
        "state": "فومن",
        "city": "ماکلوان"
    },
    {
        "id": "75",
        "latitude": "37° 8' 0.960",
        "longitude": "49° 22' 4.544",
        "lat_decimal": "37.1336000",
        "lon_decimal": "49.3679289",
        "province": "گیلان",
        "state": "شفت",
        "city": "احمدسرگوراب"
    },
    {
        "id": "76",
        "latitude": "37° 9' 49.730",
        "longitude": "49° 24' 11.131",
        "lat_decimal": "37.1638139",
        "lon_decimal": "49.4030919",
        "province": "گیلان",
        "state": "شفت",
        "city": "شفت"
    },
    {
        "id": "77",
        "latitude": "37° 21' 55.804",
        "longitude": "49° 7' 54.365",
        "lat_decimal": "37.3655011",
        "lon_decimal": "49.1317681",
        "province": "گیلان",
        "state": "ماسال",
        "city": "ماسال"
    },
    {
        "id": "78",
        "latitude": "35° 52' 55.164",
        "longitude": "52° 10' 11.104",
        "lat_decimal": "35.8819900",
        "lon_decimal": "52.1697511",
        "province": "مازندران",
        "state": "آمل",
        "city": "رینه"
    },
    {
        "id": "79",
        "latitude": "35° 54' 10.588",
        "longitude": "52° 13' 9.300",
        "lat_decimal": "35.9029411",
        "lon_decimal": "52.2192500",
        "province": "مازندران",
        "state": "آمل",
        "city": "گزنک"
    },
    {
        "id": "80",
        "latitude": "37° 11' 44.430",
        "longitude": "50° 8' 50.741",
        "lat_decimal": "37.1956750",
        "lon_decimal": "50.1474281",
        "province": "گیلان",
        "state": "لنگرود",
        "city": "لنگرود"
    },
    {
        "id": "81",
        "latitude": "37° 11' 44.430",
        "longitude": "50° 8' 50.741",
        "lat_decimal": "37.1956750",
        "lon_decimal": "50.1474281",
        "province": "گیلان",
        "state": "لنگرود",
        "city": "چاف و چمخاله"
    },
    {
        "id": "82",
        "latitude": "37° 6' 36.608",
        "longitude": "50° 6' 49.925",
        "lat_decimal": "37.1101689",
        "lon_decimal": "50.1138681",
        "province": "گیلان",
        "state": "لنگرود",
        "city": "اطاقور"
    },
    {
        "id": "83",
        "latitude": "37° 9' 2.264",
        "longitude": "50° 10' 34.248",
        "lat_decimal": "37.1506289",
        "lon_decimal": "50.1761800",
        "province": "گیلان",
        "state": "لنگرود",
        "city": "کومله"
    },
    {
        "id": "84",
        "latitude": "37° 9' 35.640",
        "longitude": "50° 12' 59.944",
        "lat_decimal": "37.1599000",
        "lon_decimal": "50.2166511",
        "province": "گیلان",
        "state": "لنگرود",
        "city": "شلمان"
    },
    {
        "id": "85",
        "latitude": "36° 53' 0.755",
        "longitude": "49° 54' 25.711",
        "lat_decimal": "36.8835431",
        "lon_decimal": "49.9071419",
        "province": "گیلان",
        "state": "سیاهکل",
        "city": "دیلمان"
    },
    {
        "id": "86",
        "latitude": "37° 9' 3.935",
        "longitude": "49° 52' 20.543",
        "lat_decimal": "37.1510931",
        "lon_decimal": "49.8723731",
        "province": "گیلان",
        "state": "سیاهکل",
        "city": "سیاهکل"
    },
    {
        "id": "87",
        "latitude": "36° 50' 52.624",
        "longitude": "50° 47' 25.908",
        "lat_decimal": "36.8479511",
        "lon_decimal": "50.7905300",
        "province": "مازندران",
        "state": "تنکابن",
        "city": "شیرود"
    },
    {
        "id": "88",
        "latitude": "36° 48' 54.497",
        "longitude": "50° 52' 27.710",
        "lat_decimal": "36.8151381",
        "lon_decimal": "50.8743639",
        "province": "مازندران",
        "state": "تنکابن",
        "city": "تنکابن"
    },
    {
        "id": "89",
        "latitude": "37° 21' 55.804",
        "longitude": "49° 7' 54.365",
        "lat_decimal": "37.3655011",
        "lon_decimal": "49.1317681",
        "province": "گیلان",
        "state": "ماسال",
        "city": "بازار جمعه"
    },
    {
        "id": "90",
        "latitude": "36° 28' 38.845",
        "longitude": "52° 21' 21.006",
        "lat_decimal": "36.4774569",
        "lon_decimal": "52.3558350",
        "province": "مازندران",
        "state": "آمل",
        "city": "آمل"
    },
    {
        "id": "91",
        "latitude": "36° 28' 50.394",
        "longitude": "52° 27' 7.340",
        "lat_decimal": "36.4806650",
        "lon_decimal": "52.4520389",
        "province": "مازندران",
        "state": "آمل",
        "city": "دابودشت"
    },
    {
        "id": "92",
        "latitude": "36° 28' 38.845",
        "longitude": "52° 21' 21.006",
        "lat_decimal": "36.4774569",
        "lon_decimal": "52.3558350",
        "province": "مازندران",
        "state": "آمل",
        "city": "امامزاده عبدالله"
    },
    {
        "id": "93",
        "latitude": "36° 22' 17.252",
        "longitude": "52° 33' 56.488",
        "lat_decimal": "36.3714589",
        "lon_decimal": "52.5656911",
        "province": "مازندران",
        "state": "بابل",
        "city": "خوش رودپی"
    },
    {
        "id": "94",
        "latitude": "36° 35' 55.612",
        "longitude": "52° 39' 45.853",
        "lat_decimal": "36.5987811",
        "lon_decimal": "52.6627369",
        "province": "مازندران",
        "state": "بابل",
        "city": "امیرکلا"
    },
    {
        "id": "95",
        "latitude": "36° 31' 16.298",
        "longitude": "52° 40' 33.352",
        "lat_decimal": "36.5211939",
        "lon_decimal": "52.6759311",
        "province": "مازندران",
        "state": "بابل",
        "city": "بابل"
    },
    {
        "id": "96",
        "latitude": "36° 43' 30.493",
        "longitude": "53° 48' 39.780",
        "lat_decimal": "36.7251369",
        "lon_decimal": "53.8110500",
        "province": "مازندران",
        "state": "بابل",
        "city": "گلوگاه"
    },
    {
        "id": "97",
        "latitude": "36° 21' 50.573",
        "longitude": "52° 44' 9.064",
        "lat_decimal": "36.3640481",
        "lon_decimal": "52.7358511",
        "province": "مازندران",
        "state": "بابل",
        "city": "مرزیکلا"
    },
    {
        "id": "98",
        "latitude": "36° 31' 16.298",
        "longitude": "52° 40' 33.352",
        "lat_decimal": "36.5211939",
        "lon_decimal": "52.6759311",
        "province": "مازندران",
        "state": "بابل",
        "city": "زرگرمحله"
    },
    {
        "id": "99",
        "latitude": "36° 24' 59.749",
        "longitude": "52° 39' 23.450",
        "lat_decimal": "36.4165969",
        "lon_decimal": "52.6565139",
        "province": "مازندران",
        "state": "بابل",
        "city": "گتاب"
    },
    {
        "id": "100",
        "latitude": "36° 41' 43.955",
        "longitude": "53° 32' 4.711",
        "lat_decimal": "36.6955431",
        "lon_decimal": "53.5346419",
        "province": "مازندران",
        "state": "بهشهر",
        "city": "بهشهر"
    },
    {
        "id": "101",
        "latitude": "36° 40' 41.092",
        "longitude": "53° 25' 33.762",
        "lat_decimal": "36.6780811",
        "lon_decimal": "53.4260450",
        "province": "مازندران",
        "state": "بهشهر",
        "city": "رستمکلا"
    },
    {
        "id": "102",
        "latitude": "36° 42' 6.350",
        "longitude": "53° 38' 22.456",
        "lat_decimal": "36.7017639",
        "lon_decimal": "53.6395711",
        "province": "مازندران",
        "state": "بهشهر",
        "city": "خلیل شهر"
    },
    {
        "id": "103",
        "latitude": "36° 44' 53.628",
        "longitude": "51° 2' 6.400",
        "lat_decimal": "36.7482300",
        "lon_decimal": "51.0351111",
        "province": "مازندران",
        "state": "تنکابن",
        "city": "نشتارود"
    },
    {
        "id": "104",
        "latitude": "36° 47' 10.720",
        "longitude": "50° 52' 2.550",
        "lat_decimal": "36.7863111",
        "lon_decimal": "50.8673750",
        "province": "مازندران",
        "state": "تنکابن",
        "city": "خرم آباد"
    },
    {
        "id": "105",
        "latitude": "36° 10' 46.711",
        "longitude": "52° 58' 28.873",
        "lat_decimal": "36.1796419",
        "lon_decimal": "52.9746869",
        "province": "مازندران",
        "state": "سوادکوه",
        "city": "زیرآب"
    },
    {
        "id": "106",
        "latitude": "36° 54' 57.564",
        "longitude": "50° 39' 44.410",
        "lat_decimal": "36.9159900",
        "lon_decimal": "50.6623361",
        "province": "مازندران",
        "state": "رامسر",
        "city": "رامسر"
    },
    {
        "id": "107",
        "latitude": "36° 52' 41.027",
        "longitude": "50° 43' 1.096",
        "lat_decimal": "36.8780631",
        "lon_decimal": "50.7169711",
        "province": "مازندران",
        "state": "رامسر",
        "city": "کتالم وسادات شهر"
    },
    {
        "id": "108",
        "latitude": "36° 14' 16.498",
        "longitude": "53° 32' 21.854",
        "lat_decimal": "36.2379161",
        "lon_decimal": "53.5394039",
        "province": "مازندران",
        "state": "ساری",
        "city": "کیاسر"
    },
    {
        "id": "109",
        "latitude": "36° 10' 27.066",
        "longitude": "53° 16' 0.923",
        "lat_decimal": "36.1741850",
        "lon_decimal": "53.2669231",
        "province": "مازندران",
        "state": "ساری",
        "city": "فریم"
    },
    {
        "id": "110",
        "latitude": "36° 34' 0.779",
        "longitude": "53° 3' 36.058",
        "lat_decimal": "36.5668831",
        "lon_decimal": "53.0600161",
        "province": "مازندران",
        "state": "ساری",
        "city": "ساری"
    },
    {
        "id": "111",
        "latitude": "36° 34' 0.779",
        "longitude": "53° 3' 36.058",
        "lat_decimal": "36.5668831",
        "lon_decimal": "53.0600161",
        "province": "مازندران",
        "state": "ساری",
        "city": "پایین هولار"
    },
    {
        "id": "112",
        "latitude": "36° 3' 58.896",
        "longitude": "52° 50' 16.494",
        "lat_decimal": "36.0663600",
        "lon_decimal": "52.8379150",
        "province": "مازندران",
        "state": "سوادکوه",
        "city": "آلاشت"
    },
    {
        "id": "113",
        "latitude": "36° 6' 49.194",
        "longitude": "53° 3' 27.896",
        "lat_decimal": "36.1136650",
        "lon_decimal": "53.0577489",
        "province": "مازندران",
        "state": "سوادکوه",
        "city": "پل سفید"
    },
    {
        "id": "114",
        "latitude": "36° 23' 44.088",
        "longitude": "51° 35' 23.255",
        "lat_decimal": "36.3955800",
        "lon_decimal": "51.5897931",
        "province": "مازندران",
        "state": "نوشهر",
        "city": "پول"
    },
    {
        "id": "115",
        "latitude": "36° 38' 49.506",
        "longitude": "51° 29' 59.442",
        "lat_decimal": "36.6470850",
        "lon_decimal": "51.4998450",
        "province": "مازندران",
        "state": "نوشهر",
        "city": "کجور"
    },
    {
        "id": "116",
        "latitude": "36° 27' 51.671",
        "longitude": "52° 51' 54.295",
        "lat_decimal": "36.4643531",
        "lon_decimal": "52.8650819",
        "province": "مازندران",
        "state": "قایم شهر",
        "city": "قایم شهر"
    },
    {
        "id": "117",
        "latitude": "36° 27' 51.671",
        "longitude": "52° 51' 54.295",
        "lat_decimal": "36.4643531",
        "lon_decimal": "52.8650819",
        "province": "مازندران",
        "state": "قایم شهر",
        "city": "ارطه"
    },
    {
        "id": "118",
        "latitude": "36° 12' 4.396",
        "longitude": "51° 48' 21.967",
        "lat_decimal": "36.2012211",
        "lon_decimal": "51.8061019",
        "province": "مازندران",
        "state": "نور",
        "city": "بلده"
    },
    {
        "id": "119",
        "latitude": "36° 28' 56.633",
        "longitude": "52° 7' 16.068",
        "lat_decimal": "36.4823981",
        "lon_decimal": "52.1211300",
        "province": "مازندران",
        "state": "نور",
        "city": "چمستان"
    },
    {
        "id": "120",
        "latitude": "36° 34' 23.066",
        "longitude": "52° 0' 57.175",
        "lat_decimal": "36.5730739",
        "lon_decimal": "52.0158819",
        "province": "مازندران",
        "state": "نور",
        "city": "نور"
    },
    {
        "id": "121",
        "latitude": "36° 34' 13.310",
        "longitude": "51° 58' 7.903",
        "lat_decimal": "36.5703639",
        "lon_decimal": "51.9688619",
        "province": "مازندران",
        "state": "نور",
        "city": "رویان"
    },
    {
        "id": "122",
        "latitude": "36° 36' 4.644",
        "longitude": "52° 8' 21.761",
        "lat_decimal": "36.6012900",
        "lon_decimal": "52.1393781",
        "province": "مازندران",
        "state": "نور",
        "city": "ایزدشهر"
    },
    {
        "id": "123",
        "latitude": "36° 38' 49.506",
        "longitude": "51° 29' 59.442",
        "lat_decimal": "36.6470850",
        "lon_decimal": "51.4998450",
        "province": "مازندران",
        "state": "نوشهر",
        "city": "نوشهر"
    },
    {
        "id": "124",
        "latitude": "36° 41' 56.177",
        "longitude": "52° 38' 57.610",
        "lat_decimal": "36.6989381",
        "lon_decimal": "52.6493361",
        "province": "مازندران",
        "state": "بابلسر",
        "city": "بابلسر"
    },
    {
        "id": "125",
        "latitude": "36° 40' 12.731",
        "longitude": "52° 45' 44.194",
        "lat_decimal": "36.6702031",
        "lon_decimal": "52.7622761",
        "province": "مازندران",
        "state": "بابلسر",
        "city": "بهنمیر"
    },
    {
        "id": "126",
        "latitude": "36° 41' 56.177",
        "longitude": "52° 38' 57.610",
        "lat_decimal": "36.6989381",
        "lon_decimal": "52.6493361",
        "province": "مازندران",
        "state": "بابلسر",
        "city": "هادی شهر"
    },
    {
        "id": "127",
        "latitude": "36° 26' 46.741",
        "longitude": "51° 17' 44.131",
        "lat_decimal": "36.4463169",
        "lon_decimal": "51.2955919",
        "province": "مازندران",
        "state": "چالوس",
        "city": "مرزن آباد"
    },
    {
        "id": "128",
        "latitude": "36° 17' 23.820",
        "longitude": "52° 52' 51.420",
        "lat_decimal": "36.2899500",
        "lon_decimal": "52.8809500",
        "province": "مازندران",
        "state": "سوادکوه شمالی",
        "city": "شیرگاه"
    },
    {
        "id": "129",
        "latitude": "36° 40' 35.663",
        "longitude": "52° 27' 24.448",
        "lat_decimal": "36.6765731",
        "lon_decimal": "52.4567911",
        "province": "مازندران",
        "state": "محمودآباد",
        "city": "سرخرود"
    },
    {
        "id": "130",
        "latitude": "36° 37' 53.184",
        "longitude": "52° 15' 8.528",
        "lat_decimal": "36.6314400",
        "lon_decimal": "52.2523689",
        "province": "مازندران",
        "state": "محمودآباد",
        "city": "محمودآباد"
    },
    {
        "id": "131",
        "latitude": "36° 39' 6.746",
        "longitude": "53° 17' 37.129",
        "lat_decimal": "36.6518739",
        "lon_decimal": "53.2936469",
        "province": "مازندران",
        "state": "نکا",
        "city": "نکا"
    },
    {
        "id": "132",
        "latitude": "36° 39' 14.353",
        "longitude": "51° 25' 28.085",
        "lat_decimal": "36.6539869",
        "lon_decimal": "51.4244681",
        "province": "مازندران",
        "state": "چالوس",
        "city": "چالوس"
    },
    {
        "id": "133",
        "latitude": "36° 39' 14.353",
        "longitude": "51° 25' 28.085",
        "lat_decimal": "36.6539869",
        "lon_decimal": "51.4244681",
        "province": "مازندران",
        "state": "چالوس",
        "city": "هچیرود"
    },
    {
        "id": "134",
        "latitude": "36° 41' 8.916",
        "longitude": "52° 54' 25.160",
        "lat_decimal": "36.6858100",
        "lon_decimal": "52.9069889",
        "province": "مازندران",
        "state": "جویبار",
        "city": "کوهی خیل"
    },
    {
        "id": "135",
        "latitude": "36° 34' 54.750",
        "longitude": "52° 48' 53.345",
        "lat_decimal": "36.5818750",
        "lon_decimal": "52.8148181",
        "province": "مازندران",
        "state": "سیمرغ",
        "city": "کیاکلا"
    },
    {
        "id": "136",
        "latitude": "36° 38' 27.629",
        "longitude": "52° 53' 59.370",
        "lat_decimal": "36.6410081",
        "lon_decimal": "52.8998250",
        "province": "مازندران",
        "state": "جویبار",
        "city": "جویبار"
    },
    {
        "id": "137",
        "latitude": "36° 40' 58.091",
        "longitude": "52° 31' 0.070",
        "lat_decimal": "36.6828031",
        "lon_decimal": "52.5166861",
        "province": "مازندران",
        "state": "فریدونکنار",
        "city": "فریدونکنار"
    },
    {
        "id": "138",
        "latitude": "36° 43' 16.439",
        "longitude": "51° 6' 57.496",
        "lat_decimal": "36.7212331",
        "lon_decimal": "51.1159711",
        "province": "مازندران",
        "state": "عباس آباد",
        "city": "عباس اباد"
    },
    {
        "id": "139",
        "latitude": "36° 41' 56.483",
        "longitude": "51° 11' 59.842",
        "lat_decimal": "36.6990231",
        "lon_decimal": "51.1999561",
        "province": "مازندران",
        "state": "عباس آباد",
        "city": "سلمان شهر"
    },
    {
        "id": "140",
        "latitude": "36° 41' 29.152",
        "longitude": "51° 15' 45.461",
        "lat_decimal": "36.6914311",
        "lon_decimal": "51.2626281",
        "province": "مازندران",
        "state": "عباس آباد",
        "city": "کلارآباد"
    },
    {
        "id": "141",
        "latitude": "36° 35' 38.112",
        "longitude": "53° 12' 42.019",
        "lat_decimal": "36.5939200",
        "lon_decimal": "53.2116719",
        "province": "مازندران",
        "state": "میاندورود",
        "city": "سورک"
    },
    {
        "id": "142",
        "latitude": "36° 29' 37.302",
        "longitude": "51° 8' 41.834",
        "lat_decimal": "36.4936950",
        "lon_decimal": "51.1449539",
        "province": "مازندران",
        "state": "کلاردشت",
        "city": "کلاردشت"
    },
    {
        "id": "143",
        "latitude": "38° 28' 28.319",
        "longitude": "47° 4' 15.539",
        "lat_decimal": "38.4745331",
        "lon_decimal": "47.0709831",
        "province": "آذربایجان شرقی",
        "state": "اهر",
        "city": "اهر"
    },
    {
        "id": "144",
        "latitude": "38° 51' 25.880",
        "longitude": "47° 21' 54.454",
        "lat_decimal": "38.8571889",
        "lon_decimal": "47.3651261",
        "province": "آذربایجان شرقی",
        "state": "اهر",
        "city": "هوراند"
    },
    {
        "id": "145",
        "latitude": "37° 56' 27.589",
        "longitude": "47° 32' 7.199",
        "lat_decimal": "37.9409969",
        "lon_decimal": "47.5353331",
        "province": "آذربایجان شرقی",
        "state": "سراب",
        "city": "سراب"
    },
    {
        "id": "146",
        "latitude": "38° 4' 53.731",
        "longitude": "47° 7' 54.019",
        "lat_decimal": "38.0815919",
        "lon_decimal": "47.1316719",
        "province": "آذربایجان شرقی",
        "state": "سراب",
        "city": "مهربان"
    },
    {
        "id": "147",
        "latitude": "37° 52' 53.591",
        "longitude": "47° 5' 59.860",
        "lat_decimal": "37.8815531",
        "lon_decimal": "47.0999611",
        "province": "آذربایجان شرقی",
        "state": "سراب",
        "city": "شربیان"
    },
    {
        "id": "148",
        "latitude": "37° 56' 57.595",
        "longitude": "47° 7' 11.870",
        "lat_decimal": "37.9493319",
        "lon_decimal": "47.1199639",
        "province": "آذربایجان شرقی",
        "state": "سراب",
        "city": "دوزدوزان"
    },
    {
        "id": "149",
        "latitude": "37° 23' 9.726",
        "longitude": "46° 14' 0.978",
        "lat_decimal": "37.3860350",
        "lon_decimal": "46.2336050",
        "province": "آذربایجان شرقی",
        "state": "مراغه",
        "city": "مراغه"
    },
    {
        "id": "150",
        "latitude": "37° 59' 39.682",
        "longitude": "46° 28' 29.089",
        "lat_decimal": "37.9943561",
        "lon_decimal": "46.4747469",
        "province": "آذربایجان شرقی",
        "state": "تبریز",
        "city": "باسمنج"
    },
    {
        "id": "151",
        "latitude": "38° 4' 45.448",
        "longitude": "46° 17' 20.940",
        "lat_decimal": "38.0792911",
        "lon_decimal": "46.2891500",
        "province": "آذربایجان شرقی",
        "state": "تبریز",
        "city": "تبریز"
    },
    {
        "id": "152",
        "latitude": "38° 1' 54.408",
        "longitude": "46° 8' 52.494",
        "lat_decimal": "38.0317800",
        "lon_decimal": "46.1479150",
        "province": "آذربایجان شرقی",
        "state": "تبریز",
        "city": "سردرود"
    },
    {
        "id": "153",
        "latitude": "38° 4' 45.448",
        "longitude": "46° 17' 20.940",
        "lat_decimal": "38.0792911",
        "lon_decimal": "46.2891500",
        "province": "آذربایجان شرقی",
        "state": "تبریز",
        "city": "خسروشاه"
    },
    {
        "id": "154",
        "latitude": "37° 23' 9.726",
        "longitude": "46° 14' 0.978",
        "lat_decimal": "37.3860350",
        "lon_decimal": "46.2336050",
        "province": "آذربایجان شرقی",
        "state": "مراغه",
        "city": "خداجو(خراجو)"
    },
    {
        "id": "155",
        "latitude": "38° 35' 16.778",
        "longitude": "45° 50' 3.797",
        "lat_decimal": "38.5879939",
        "lon_decimal": "45.8343881",
        "province": "آذربایجان شرقی",
        "state": "مرند",
        "city": "زنوز"
    },
    {
        "id": "156",
        "latitude": "38° 25' 54.980",
        "longitude": "45° 46' 19.362",
        "lat_decimal": "38.4319389",
        "lon_decimal": "45.7720450",
        "province": "آذربایجان شرقی",
        "state": "مرند",
        "city": "مرند"
    },
    {
        "id": "157",
        "latitude": "38° 27' 36.194",
        "longitude": "45° 34' 8.170",
        "lat_decimal": "38.4600539",
        "lon_decimal": "45.5689361",
        "province": "آذربایجان شرقی",
        "state": "مرند",
        "city": "کشکسرای"
    },
    {
        "id": "158",
        "latitude": "38° 25' 54.980",
        "longitude": "45° 46' 19.362",
        "lat_decimal": "38.4319389",
        "lon_decimal": "45.7720450",
        "province": "آذربایجان شرقی",
        "state": "مرند",
        "city": "بناب مرند"
    },
    {
        "id": "159",
        "latitude": "38° 31' 17.969",
        "longitude": "45° 38' 24.929",
        "lat_decimal": "38.5216581",
        "lon_decimal": "45.6402581",
        "province": "آذربایجان شرقی",
        "state": "مرند",
        "city": "یامچی"
    },
    {
        "id": "160",
        "latitude": "37° 34' 49.580",
        "longitude": "47° 23' 29.231",
        "lat_decimal": "37.5804389",
        "lon_decimal": "47.3914531",
        "province": "آذربایجان شرقی",
        "state": "میانه",
        "city": "ترکمانچای"
    },
    {
        "id": "161",
        "latitude": "37° 15' 12.139",
        "longitude": "48° 3' 55.692",
        "lat_decimal": "37.2533719",
        "lon_decimal": "48.0654700",
        "province": "آذربایجان شرقی",
        "state": "میانه",
        "city": "آقکند"
    },
    {
        "id": "162",
        "latitude": "37° 36' 27.662",
        "longitude": "47° 46' 5.484",
        "lat_decimal": "37.6076839",
        "lon_decimal": "47.7681900",
        "province": "آذربایجان شرقی",
        "state": "میانه",
        "city": "ترک"
    },
    {
        "id": "163",
        "latitude": "37° 25' 14.542",
        "longitude": "47° 42' 58.860",
        "lat_decimal": "37.4207061",
        "lon_decimal": "47.7163500",
        "province": "آذربایجان شرقی",
        "state": "میانه",
        "city": "میانه"
    },
    {
        "id": "164",
        "latitude": "37° 25' 14.542",
        "longitude": "47° 42' 58.860",
        "lat_decimal": "37.4207061",
        "lon_decimal": "47.7163500",
        "province": "آذربایجان شرقی",
        "state": "میانه",
        "city": "اچاچی"
    },
    {
        "id": "165",
        "latitude": "37° 28' 14.794",
        "longitude": "47° 3' 34.816",
        "lat_decimal": "37.4707761",
        "lon_decimal": "47.0596711",
        "province": "آذربایجان شرقی",
        "state": "هشترود",
        "city": "هشترود"
    },
    {
        "id": "166",
        "latitude": "37° 20' 50.327",
        "longitude": "46° 45' 43.510",
        "lat_decimal": "37.3473131",
        "lon_decimal": "46.7620861",
        "province": "آذربایجان شرقی",
        "state": "هشترود",
        "city": "نظرکهریزی"
    },
    {
        "id": "167",
        "latitude": "37° 20' 44.113",
        "longitude": "46° 3' 58.324",
        "lat_decimal": "37.3455869",
        "lon_decimal": "46.0662011",
        "province": "آذربایجان شرقی",
        "state": "بناب",
        "city": "بناب"
    },
    {
        "id": "168",
        "latitude": "37° 43' 42.204",
        "longitude": "46° 56' 44.902",
        "lat_decimal": "37.7283900",
        "lon_decimal": "46.9458061",
        "province": "آذربایجان شرقی",
        "state": "بستان آباد",
        "city": "تیکمه داش"
    },
    {
        "id": "169",
        "latitude": "37° 50' 13.182",
        "longitude": "46° 49' 51.467",
        "lat_decimal": "37.8369950",
        "lon_decimal": "46.8309631",
        "province": "آذربایجان شرقی",
        "state": "بستان آباد",
        "city": "بستان آباد"
    },
    {
        "id": "170",
        "latitude": "38° 16' 43.036",
        "longitude": "45° 58' 53.821",
        "lat_decimal": "38.2786211",
        "lon_decimal": "45.9816169",
        "province": "آذربایجان شرقی",
        "state": "شبستر",
        "city": "صوفیان"
    },
    {
        "id": "171",
        "latitude": "38° 11' 38.177",
        "longitude": "45° 37' 58.649",
        "lat_decimal": "38.1939381",
        "lon_decimal": "45.6329581",
        "province": "آذربایجان شرقی",
        "state": "شبستر",
        "city": "خامنه"
    },
    {
        "id": "172",
        "latitude": "38° 10' 49.796",
        "longitude": "45° 42' 5.015",
        "lat_decimal": "38.1804989",
        "lon_decimal": "45.7013931",
        "province": "آذربایجان شرقی",
        "state": "شبستر",
        "city": "شبستر"
    },
    {
        "id": "173",
        "latitude": "38° 10' 40.213",
        "longitude": "45° 29' 24.932",
        "lat_decimal": "38.1778369",
        "lon_decimal": "45.4902589",
        "province": "آذربایجان شرقی",
        "state": "شبستر",
        "city": "شرفخانه"
    },
    {
        "id": "174",
        "latitude": "38° 8' 31.682",
        "longitude": "45° 37' 21.072",
        "lat_decimal": "38.1421339",
        "lon_decimal": "45.6225200",
        "province": "آذربایجان شرقی",
        "state": "شبستر",
        "city": "شندآباد"
    },
    {
        "id": "175",
        "latitude": "38° 11' 38.677",
        "longitude": "45° 48' 50.713",
        "lat_decimal": "38.1940769",
        "lon_decimal": "45.8140869",
        "province": "آذربایجان شرقی",
        "state": "شبستر",
        "city": "سیس"
    },
    {
        "id": "176",
        "latitude": "38° 7' 51.020",
        "longitude": "45° 42' 46.019",
        "lat_decimal": "38.1308389",
        "lon_decimal": "45.7127831",
        "province": "آذربایجان شرقی",
        "state": "شبستر",
        "city": "وایقان"
    },
    {
        "id": "177",
        "latitude": "38° 11' 1.694",
        "longitude": "45° 34' 38.975",
        "lat_decimal": "38.1838039",
        "lon_decimal": "45.5774931",
        "province": "آذربایجان شرقی",
        "state": "شبستر",
        "city": "کوزه کنان"
    },
    {
        "id": "178",
        "latitude": "38° 18' 37.984",
        "longitude": "45° 22' 13.494",
        "lat_decimal": "38.3105511",
        "lon_decimal": "45.3704150",
        "province": "آذربایجان شرقی",
        "state": "شبستر",
        "city": "تسوج"
    },
    {
        "id": "179",
        "latitude": "38° 51' 53.453",
        "longitude": "47° 2' 26.819",
        "lat_decimal": "38.8648481",
        "lon_decimal": "47.0407831",
        "province": "آذربایجان شرقی",
        "state": "کلیبر",
        "city": "کلیبر"
    },
    {
        "id": "180",
        "latitude": "39° 2' 24.504",
        "longitude": "47° 19' 2.507",
        "lat_decimal": "39.0401400",
        "lon_decimal": "47.3173631",
        "province": "آذربایجان شرقی",
        "state": "کلیبر",
        "city": "آبش احمد"
    },
    {
        "id": "181",
        "latitude": "38° 9' 16.902",
        "longitude": "46° 35' 12.872",
        "lat_decimal": "38.1546950",
        "lon_decimal": "46.5869089",
        "province": "آذربایجان شرقی",
        "state": "هریس",
        "city": "خواجه"
    },
    {
        "id": "182",
        "latitude": "38° 14' 58.643",
        "longitude": "47° 7' 1.628",
        "lat_decimal": "38.2496231",
        "lon_decimal": "47.1171189",
        "province": "آذربایجان شرقی",
        "state": "هریس",
        "city": "هریس"
    },
    {
        "id": "183",
        "latitude": "38° 5' 30.638",
        "longitude": "47° 4' 54.134",
        "lat_decimal": "38.0918439",
        "lon_decimal": "47.0817039",
        "province": "آذربایجان شرقی",
        "state": "هریس",
        "city": "زرنق"
    },
    {
        "id": "184",
        "latitude": "38° 7' 54.667",
        "longitude": "46° 56' 50.885",
        "lat_decimal": "38.1318519",
        "lon_decimal": "46.9474681",
        "province": "آذربایجان شرقی",
        "state": "هریس",
        "city": "بخشایش"
    },
    {
        "id": "185",
        "latitude": "38° 6' 4.493",
        "longitude": "46° 59' 35.488",
        "lat_decimal": "38.1012481",
        "lon_decimal": "46.9931911",
        "province": "آذربایجان شرقی",
        "state": "هریس",
        "city": "کلوانق"
    },
    {
        "id": "186",
        "latitude": "38° 52' 10.268",
        "longitude": "46° 0' 6.142",
        "lat_decimal": "38.8695189",
        "lon_decimal": "46.0017061",
        "province": "آذربایجان شرقی",
        "state": "جلفا",
        "city": "سیه رود"
    },
    {
        "id": "187",
        "latitude": "38° 56' 5.150",
        "longitude": "45° 38' 19.932",
        "lat_decimal": "38.9347639",
        "lon_decimal": "45.6388700",
        "province": "آذربایجان شرقی",
        "state": "جلفا",
        "city": "جلفا"
    },
    {
        "id": "188",
        "latitude": "38° 50' 18.344",
        "longitude": "45° 39' 46.469",
        "lat_decimal": "38.8384289",
        "lon_decimal": "45.6629081",
        "province": "آذربایجان شرقی",
        "state": "جلفا",
        "city": "هادیشهر"
    },
    {
        "id": "189",
        "latitude": "37° 0' 23.220",
        "longitude": "46° 12' 20.045",
        "lat_decimal": "37.0064500",
        "lon_decimal": "46.2055681",
        "province": "آذربایجان شرقی",
        "state": "ملکان",
        "city": "لیلان"
    },
    {
        "id": "190",
        "latitude": "37° 8' 33.115",
        "longitude": "46° 6' 1.354",
        "lat_decimal": "37.1425319",
        "lon_decimal": "46.1003761",
        "province": "آذربایجان شرقی",
        "state": "ملکان",
        "city": "ملکان"
    },
    {
        "id": "191",
        "latitude": "37° 8' 33.115",
        "longitude": "46° 6' 1.354",
        "lat_decimal": "37.1425319",
        "lon_decimal": "46.1003761",
        "province": "آذربایجان شرقی",
        "state": "ملکان",
        "city": "مبارک شهر"
    },
    {
        "id": "192",
        "latitude": "37° 46' 8.879",
        "longitude": "45° 54' 16.452",
        "lat_decimal": "37.7691331",
        "lon_decimal": "45.9045700",
        "province": "آذربایجان شرقی",
        "state": "آذرشهر",
        "city": "گوگان"
    },
    {
        "id": "193",
        "latitude": "37° 45' 58.248",
        "longitude": "45° 58' 35.216",
        "lat_decimal": "37.7661800",
        "lon_decimal": "45.9764489",
        "province": "آذربایجان شرقی",
        "state": "آذرشهر",
        "city": "تیمورلو"
    },
    {
        "id": "194",
        "latitude": "37° 50' 19.090",
        "longitude": "45° 58' 17.602",
        "lat_decimal": "37.8386361",
        "lon_decimal": "45.9715561",
        "province": "آذربایجان شرقی",
        "state": "آذرشهر",
        "city": "ممقان"
    },
    {
        "id": "195",
        "latitude": "39° 8' 52.832",
        "longitude": "47° 2' 5.125",
        "lat_decimal": "39.1480089",
        "lon_decimal": "47.0347569",
        "province": "آذربایجان شرقی",
        "state": "خداآفرین",
        "city": "خمارلو"
    },
    {
        "id": "196",
        "latitude": "38° 30' 31.342",
        "longitude": "46° 39' 1.238",
        "lat_decimal": "38.5087061",
        "lon_decimal": "46.6503439",
        "province": "آذربایجان شرقی",
        "state": "ورزقان",
        "city": "ورزقان"
    },
    {
        "id": "197",
        "latitude": "37° 28' 37.564",
        "longitude": "45° 53' 41.395",
        "lat_decimal": "37.4771011",
        "lon_decimal": "45.8948319",
        "province": "آذربایجان شرقی",
        "state": "عجب شیر",
        "city": "جوان قلعه"
    },
    {
        "id": "198",
        "latitude": "37° 45' 58.248",
        "longitude": "45° 58' 35.216",
        "lat_decimal": "37.7661800",
        "lon_decimal": "45.9764489",
        "province": "آذربایجان شرقی",
        "state": "آذرشهر",
        "city": "آذرشهر"
    },
    {
        "id": "199",
        "latitude": "37° 56' 12.271",
        "longitude": "45° 58' 55.150",
        "lat_decimal": "37.9367419",
        "lon_decimal": "45.9819861",
        "province": "آذربایجان شرقی",
        "state": "اسکو",
        "city": "ایلخچی"
    },
    {
        "id": "200",
        "latitude": "37° 55' 4.008",
        "longitude": "46° 7' 28.085",
        "lat_decimal": "37.9177800",
        "lon_decimal": "46.1244681",
        "province": "آذربایجان شرقی",
        "state": "اسکو",
        "city": "اسکو"
    },
    {
        "id": "201",
        "latitude": "37° 55' 4.008",
        "longitude": "46° 7' 28.085",
        "lat_decimal": "37.9177800",
        "lon_decimal": "46.1244681",
        "province": "آذربایجان شرقی",
        "state": "اسکو",
        "city": "سهند"
    },
    {
        "id": "202",
        "latitude": "37° 7' 44.764",
        "longitude": "46° 58' 20.071",
        "lat_decimal": "37.1291011",
        "lon_decimal": "46.9722419",
        "province": "آذربایجان شرقی",
        "state": "چاراویماق",
        "city": "قره آغاج"
    },
    {
        "id": "203",
        "latitude": "38° 40' 58.804",
        "longitude": "46° 10' 7.111",
        "lat_decimal": "38.6830011",
        "lon_decimal": "46.1686419",
        "province": "آذربایجان شرقی",
        "state": "ورزقان",
        "city": "خاروانا"
    },
    {
        "id": "204",
        "latitude": "37° 28' 37.564",
        "longitude": "45° 53' 41.395",
        "lat_decimal": "37.4771011",
        "lon_decimal": "45.8948319",
        "province": "آذربایجان شرقی",
        "state": "عجب شیر",
        "city": "عجب شیر"
    },
    {
        "id": "205",
        "latitude": "37° 59' 28.349",
        "longitude": "45° 2' 16.357",
        "lat_decimal": "37.9912081",
        "lon_decimal": "45.0378769",
        "province": "آذربایجان غربی",
        "state": "ارومیه",
        "city": "قوشچی"
    },
    {
        "id": "206",
        "latitude": "37° 25' 20.744",
        "longitude": "44° 51' 4.763",
        "lat_decimal": "37.4224289",
        "lon_decimal": "44.8513231",
        "province": "آذربایجان غربی",
        "state": "ارومیه",
        "city": "سیلوانه"
    },
    {
        "id": "207",
        "latitude": "37° 43' 21.832",
        "longitude": "44° 39' 1.548",
        "lat_decimal": "37.7227311",
        "lon_decimal": "44.6504300",
        "province": "آذربایجان غربی",
        "state": "ارومیه",
        "city": "سرو"
    },
    {
        "id": "208",
        "latitude": "37° 32' 22.340",
        "longitude": "45° 3' 27.540",
        "lat_decimal": "37.5395389",
        "lon_decimal": "45.0576500",
        "province": "آذربایجان غربی",
        "state": "ارومیه",
        "city": "ارومیه"
    },
    {
        "id": "209",
        "latitude": "37° 44' 3.606",
        "longitude": "45° 3' 8.255",
        "lat_decimal": "37.7343350",
        "lon_decimal": "45.0522931",
        "province": "آذربایجان غربی",
        "state": "ارومیه",
        "city": "نوشین"
    },
    {
        "id": "210",
        "latitude": "36° 41' 38.177",
        "longitude": "45° 8' 28.302",
        "lat_decimal": "36.6939381",
        "lon_decimal": "45.1411950",
        "province": "آذربایجان غربی",
        "state": "پیرانشهر",
        "city": "پیرانشهر"
    },
    {
        "id": "211",
        "latitude": "36° 48' 42.808",
        "longitude": "45° 16' 26.177",
        "lat_decimal": "36.8118911",
        "lon_decimal": "45.2739381",
        "province": "آذربایجان غربی",
        "state": "پیرانشهر",
        "city": "گردکشانه"
    },
    {
        "id": "212",
        "latitude": "38° 31' 13.066",
        "longitude": "44° 57' 16.754",
        "lat_decimal": "38.5202961",
        "lon_decimal": "44.9546539",
        "province": "آذربایجان غربی",
        "state": "خوی",
        "city": "خوی"
    },
    {
        "id": "213",
        "latitude": "38° 34' 40.019",
        "longitude": "44° 50' 12.181",
        "lat_decimal": "38.5777831",
        "lon_decimal": "44.8367169",
        "province": "آذربایجان غربی",
        "state": "خوی",
        "city": "فیرورق"
    },
    {
        "id": "214",
        "latitude": "38° 27' 39.226",
        "longitude": "45° 1' 24.406",
        "lat_decimal": "38.4608961",
        "lon_decimal": "45.0234461",
        "province": "آذربایجان غربی",
        "state": "خوی",
        "city": "دیزج دیز"
    },
    {
        "id": "215",
        "latitude": "38° 31' 13.066",
        "longitude": "44° 57' 16.754",
        "lat_decimal": "38.5202961",
        "lon_decimal": "44.9546539",
        "province": "آذربایجان غربی",
        "state": "خوی",
        "city": "زرآباد"
    },
    {
        "id": "216",
        "latitude": "38° 43' 7.162",
        "longitude": "45° 12' 41.076",
        "lat_decimal": "38.7186561",
        "lon_decimal": "45.2114100",
        "province": "آذربایجان غربی",
        "state": "خوی",
        "city": "ایواوغلی"
    },
    {
        "id": "217",
        "latitude": "38° 28' 24.517",
        "longitude": "44° 24' 20.516",
        "lat_decimal": "38.4734769",
        "lon_decimal": "44.4056989",
        "province": "آذربایجان غربی",
        "state": "خوی",
        "city": "قطور"
    },
    {
        "id": "218",
        "latitude": "36° 9' 14.378",
        "longitude": "45° 28' 44.810",
        "lat_decimal": "36.1539939",
        "lon_decimal": "45.4791139",
        "province": "آذربایجان غربی",
        "state": "سردشت",
        "city": "سردشت"
    },
    {
        "id": "219",
        "latitude": "36° 12' 40.579",
        "longitude": "45° 33' 6.268",
        "lat_decimal": "36.2112719",
        "lon_decimal": "45.5517411",
        "province": "آذربایجان غربی",
        "state": "سردشت",
        "city": "ربط"
    },
    {
        "id": "220",
        "latitude": "39° 17' 31.744",
        "longitude": "44° 29' 32.770",
        "lat_decimal": "39.2921511",
        "lon_decimal": "44.4924361",
        "province": "آذربایجان غربی",
        "state": "ماکو",
        "city": "ماکو"
    },
    {
        "id": "221",
        "latitude": "36° 24' 11.095",
        "longitude": "45° 22' 29.518",
        "lat_decimal": "36.4030819",
        "lon_decimal": "45.3748661",
        "province": "آذربایجان غربی",
        "state": "سردشت",
        "city": "میرآباد"
    },
    {
        "id": "222",
        "latitude": "38° 10' 32.761",
        "longitude": "44° 41' 26.927",
        "lat_decimal": "38.1757669",
        "lon_decimal": "44.6908131",
        "province": "آذربایجان غربی",
        "state": "سلماس",
        "city": "تازه شهر"
    },
    {
        "id": "223",
        "latitude": "38° 11' 55.457",
        "longitude": "44° 45' 57.712",
        "lat_decimal": "38.1987381",
        "lon_decimal": "44.7660311",
        "province": "آذربایجان غربی",
        "state": "سلماس",
        "city": "سلماس"
    },
    {
        "id": "224",
        "latitude": "39° 23' 39.260",
        "longitude": "44° 23' 12.084",
        "lat_decimal": "39.3942389",
        "lon_decimal": "44.3866900",
        "province": "آذربایجان غربی",
        "state": "ماکو",
        "city": "بازرگان"
    },
    {
        "id": "225",
        "latitude": "36° 57' 53.860",
        "longitude": "46° 6' 21.416",
        "lat_decimal": "36.9649611",
        "lon_decimal": "46.1059489",
        "province": "آذربایجان غربی",
        "state": "میاندوآب",
        "city": "میاندوآب"
    },
    {
        "id": "226",
        "latitude": "37° 7' 32.779",
        "longitude": "45° 58' 32.030",
        "lat_decimal": "37.1257719",
        "lon_decimal": "45.9755639",
        "province": "آذربایجان غربی",
        "state": "میاندوآب",
        "city": "چهاربرج"
    },
    {
        "id": "227",
        "latitude": "36° 57' 3.492",
        "longitude": "46° 19' 11.914",
        "lat_decimal": "36.9509700",
        "lon_decimal": "46.3199761",
        "province": "آذربایجان غربی",
        "state": "میاندوآب",
        "city": "باروق"
    },
    {
        "id": "228",
        "latitude": "36° 57' 12.179",
        "longitude": "45° 23' 20.054",
        "lat_decimal": "36.9533831",
        "lon_decimal": "45.3889039",
        "province": "آذربایجان غربی",
        "state": "نقده",
        "city": "نقده"
    },
    {
        "id": "229",
        "latitude": "36° 30' 25.510",
        "longitude": "45° 47' 47.310",
        "lat_decimal": "36.5070861",
        "lon_decimal": "45.7964750",
        "province": "آذربایجان غربی",
        "state": "مهاباد",
        "city": "خلیفان"
    },
    {
        "id": "230",
        "latitude": "36° 46' 12.796",
        "longitude": "45° 43' 42.287",
        "lat_decimal": "36.7702211",
        "lon_decimal": "45.7284131",
        "province": "آذربایجان غربی",
        "state": "مهاباد",
        "city": "مهاباد"
    },
    {
        "id": "231",
        "latitude": "36° 46' 12.796",
        "longitude": "45° 43' 42.287",
        "lat_decimal": "36.7702211",
        "lon_decimal": "45.7284131",
        "province": "آذربایجان غربی",
        "state": "مهاباد",
        "city": "گوگ تپه"
    },
    {
        "id": "232",
        "latitude": "36° 24' 15.192",
        "longitude": "47° 6' 36.583",
        "lat_decimal": "36.4042200",
        "lon_decimal": "47.1101619",
        "province": "آذربایجان غربی",
        "state": "تکاب",
        "city": "تکاب"
    },
    {
        "id": "233",
        "latitude": "36° 58' 53.036",
        "longitude": "45° 31' 19.708",
        "lat_decimal": "36.9813989",
        "lon_decimal": "45.5221411",
        "province": "آذربایجان غربی",
        "state": "نقده",
        "city": "محمدیار"
    },
    {
        "id": "234",
        "latitude": "36° 43' 32.502",
        "longitude": "46° 9' 11.052",
        "lat_decimal": "36.7256950",
        "lon_decimal": "46.1530700",
        "province": "آذربایجان غربی",
        "state": "بوکان",
        "city": "سیمینه"
    },
    {
        "id": "235",
        "latitude": "36° 59' 4.225",
        "longitude": "45° 8' 35.308",
        "lat_decimal": "36.9845069",
        "lon_decimal": "45.1431411",
        "province": "آذربایجان غربی",
        "state": "اشنویه",
        "city": "نالوس"
    },
    {
        "id": "236",
        "latitude": "36° 30' 28.753",
        "longitude": "46° 12' 23.976",
        "lat_decimal": "36.5079869",
        "lon_decimal": "46.2066600",
        "province": "آذربایجان غربی",
        "state": "بوکان",
        "city": "بوکان"
    },
    {
        "id": "237",
        "latitude": "36° 40' 45.174",
        "longitude": "46° 33' 59.270",
        "lat_decimal": "36.6792150",
        "lon_decimal": "46.5664639",
        "province": "آذربایجان غربی",
        "state": "شاهین دژ",
        "city": "شاهین دژ"
    },
    {
        "id": "238",
        "latitude": "36° 50' 5.089",
        "longitude": "46° 21' 30.362",
        "lat_decimal": "36.8347469",
        "lon_decimal": "46.3584339",
        "province": "آذربایجان غربی",
        "state": "شاهین دژ",
        "city": "کشاورز"
    },
    {
        "id": "239",
        "latitude": "38° 53' 18.755",
        "longitude": "45° 1' 30.630",
        "lat_decimal": "38.8885431",
        "lon_decimal": "45.0251750",
        "province": "آذربایجان غربی",
        "state": "چایپاره",
        "city": "قره ضیاءالدین"
    },
    {
        "id": "240",
        "latitude": "37° 2' 24.763",
        "longitude": "45° 6' 0.166",
        "lat_decimal": "37.0402119",
        "lon_decimal": "45.1000461",
        "province": "آذربایجان غربی",
        "state": "اشنویه",
        "city": "اشنویه"
    },
    {
        "id": "241",
        "latitude": "39° 19' 54.257",
        "longitude": "44° 9' 11.196",
        "lat_decimal": "39.3317381",
        "lon_decimal": "44.1531100",
        "province": "آذربایجان غربی",
        "state": "چالدران",
        "city": "آواجیق"
    },
    {
        "id": "242",
        "latitude": "39° 4' 9.041",
        "longitude": "44° 23' 14.852",
        "lat_decimal": "39.0691781",
        "lon_decimal": "44.3874589",
        "province": "آذربایجان غربی",
        "state": "چالدران",
        "city": "سیه چشمه"
    },
    {
        "id": "243",
        "latitude": "39° 20' 52.264",
        "longitude": "45° 4' 6.132",
        "lat_decimal": "39.3478511",
        "lon_decimal": "45.0683700",
        "province": "آذربایجان غربی",
        "state": "پلدشت",
        "city": "نازک علیا"
    },
    {
        "id": "244",
        "latitude": "39° 20' 52.264",
        "longitude": "45° 4' 6.132",
        "lat_decimal": "39.3478511",
        "lon_decimal": "45.0683700",
        "province": "آذربایجان غربی",
        "state": "پلدشت",
        "city": "پلدشت"
    },
    {
        "id": "245",
        "latitude": "39° 13' 5.250",
        "longitude": "44° 46' 16.036",
        "lat_decimal": "39.2181250",
        "lon_decimal": "44.7711211",
        "province": "آذربایجان غربی",
        "state": "شوط",
        "city": "مرگنلر"
    },
    {
        "id": "246",
        "latitude": "39° 13' 5.250",
        "longitude": "44° 46' 16.036",
        "lat_decimal": "39.2181250",
        "lon_decimal": "44.7711211",
        "province": "آذربایجان غربی",
        "state": "شوط",
        "city": "شوط"
    },
    {
        "id": "247",
        "latitude": "34° 6' 36.547",
        "longitude": "47° 5' 25.559",
        "lat_decimal": "34.1101519",
        "lon_decimal": "47.0904331",
        "province": "کرمانشاه",
        "state": "کرمانشاه",
        "city": "هلشی"
    },
    {
        "id": "248",
        "latitude": "34° 18' 50.742",
        "longitude": "47° 5' 49.704",
        "lat_decimal": "34.3140950",
        "lon_decimal": "47.0971400",
        "province": "کرمانشاه",
        "state": "کرمانشاه",
        "city": "کرمانشاه"
    },
    {
        "id": "249",
        "latitude": "33° 56' 16.843",
        "longitude": "46° 46' 22.310",
        "lat_decimal": "33.9380119",
        "lon_decimal": "46.7728639",
        "province": "کرمانشاه",
        "state": "اسلام آبادغرب",
        "city": "حمیل"
    },
    {
        "id": "250",
        "latitude": "34° 6' 34.614",
        "longitude": "46° 31' 14.045",
        "lat_decimal": "34.1096150",
        "lon_decimal": "46.5205681",
        "province": "کرمانشاه",
        "state": "اسلام آبادغرب",
        "city": "اسلام آبادغرب"
    },
    {
        "id": "251",
        "latitude": "34° 16' 6.938",
        "longitude": "46° 48' 23.083",
        "lat_decimal": "34.2685939",
        "lon_decimal": "46.8064119",
        "province": "کرمانشاه",
        "state": "کرمانشاه",
        "city": "رباط"
    },
    {
        "id": "252",
        "latitude": "34° 29' 44.740",
        "longitude": "46° 36' 7.459",
        "lat_decimal": "34.4957611",
        "lon_decimal": "46.6020719",
        "province": "کرمانشاه",
        "state": "کرمانشاه",
        "city": "کوزران"
    },
    {
        "id": "253",
        "latitude": "34° 58' 53.069",
        "longitude": "46° 16' 13.490",
        "lat_decimal": "34.9814081",
        "lon_decimal": "46.2704139",
        "province": "کرمانشاه",
        "state": "پاوه",
        "city": "باینگان"
    },
    {
        "id": "254",
        "latitude": "35° 1' 36.084",
        "longitude": "46° 22' 1.081",
        "lat_decimal": "35.0266900",
        "lon_decimal": "46.3669669",
        "province": "کرمانشاه",
        "state": "پاوه",
        "city": "بانوره"
    },
    {
        "id": "255",
        "latitude": "35° 1' 36.084",
        "longitude": "46° 22' 1.081",
        "lat_decimal": "35.0266900",
        "lon_decimal": "46.3669669",
        "province": "کرمانشاه",
        "state": "پاوه",
        "city": "پاوه"
    },
    {
        "id": "256",
        "latitude": "35° 10' 49.814",
        "longitude": "46° 15' 12.258",
        "lat_decimal": "35.1805039",
        "lon_decimal": "46.2534050",
        "province": "کرمانشاه",
        "state": "پاوه",
        "city": "نودشه"
    },
    {
        "id": "257",
        "latitude": "35° 9' 27.050",
        "longitude": "46° 12' 23.540",
        "lat_decimal": "35.1575139",
        "lon_decimal": "46.2065389",
        "province": "کرمانشاه",
        "state": "پاوه",
        "city": "نوسود"
    },
    {
        "id": "258",
        "latitude": "34° 26' 55.255",
        "longitude": "45° 51' 46.886",
        "lat_decimal": "34.4486819",
        "lon_decimal": "45.8630239",
        "province": "کرمانشاه",
        "state": "سرپل ذهاب",
        "city": "سرپل ذهاب"
    },
    {
        "id": "259",
        "latitude": "34° 45' 45.738",
        "longitude": "47° 35' 58.672",
        "lat_decimal": "34.7627050",
        "lon_decimal": "47.5996311",
        "province": "کرمانشاه",
        "state": "سنقر",
        "city": "سنقر"
    },
    {
        "id": "260",
        "latitude": "34° 48' 48.197",
        "longitude": "47° 27' 39.161",
        "lat_decimal": "34.8133881",
        "lon_decimal": "47.4608781",
        "province": "کرمانشاه",
        "state": "سنقر",
        "city": "سطر"
    },
    {
        "id": "261",
        "latitude": "33° 51' 55.926",
        "longitude": "45° 38' 27.496",
        "lat_decimal": "33.8655350",
        "lon_decimal": "45.6409711",
        "province": "کرمانشاه",
        "state": "قصرشیرین",
        "city": "سومار"
    },
    {
        "id": "262",
        "latitude": "34° 30' 27.115",
        "longitude": "45° 35' 21.451",
        "lat_decimal": "34.5075319",
        "lon_decimal": "45.5892919",
        "province": "کرمانشاه",
        "state": "قصرشیرین",
        "city": "قصرشیرین"
    },
    {
        "id": "263",
        "latitude": "34° 30' 6.001",
        "longitude": "47° 57' 43.268",
        "lat_decimal": "34.5016669",
        "lon_decimal": "47.9620189",
        "province": "کرمانشاه",
        "state": "کنگاور",
        "city": "کنگاور"
    },
    {
        "id": "264",
        "latitude": "34° 30' 6.001",
        "longitude": "47° 57' 43.268",
        "lat_decimal": "34.5016669",
        "lon_decimal": "47.9620189",
        "province": "کرمانشاه",
        "state": "کنگاور",
        "city": "گودین"
    },
    {
        "id": "265",
        "latitude": "34° 8' 25.156",
        "longitude": "45° 55' 29.154",
        "lat_decimal": "34.1403211",
        "lon_decimal": "45.9247650",
        "province": "کرمانشاه",
        "state": "گیلانغرب",
        "city": "گیلانغرب"
    },
    {
        "id": "266",
        "latitude": "34° 1' 37.042",
        "longitude": "46° 19' 54.314",
        "lat_decimal": "34.0269561",
        "lon_decimal": "46.3317539",
        "province": "کرمانشاه",
        "state": "گیلانغرب",
        "city": "سرمست"
    },
    {
        "id": "267",
        "latitude": "34° 48' 22.187",
        "longitude": "46° 29' 31.891",
        "lat_decimal": "34.8061631",
        "lon_decimal": "46.4921919",
        "province": "کرمانشاه",
        "state": "جوانرود",
        "city": "جوانرود"
    },
    {
        "id": "268",
        "latitude": "34° 35' 1.968",
        "longitude": "47° 26' 40.805",
        "lat_decimal": "34.5838800",
        "lon_decimal": "47.4446681",
        "province": "کرمانشاه",
        "state": "صحنه",
        "city": "میان راهان"
    },
    {
        "id": "269",
        "latitude": "34° 28' 31.861",
        "longitude": "47° 41' 6.788",
        "lat_decimal": "34.4755169",
        "lon_decimal": "47.6852189",
        "province": "کرمانشاه",
        "state": "صحنه",
        "city": "صحنه"
    },
    {
        "id": "270",
        "latitude": "34° 23' 40.506",
        "longitude": "47° 26' 51.673",
        "lat_decimal": "34.3945850",
        "lon_decimal": "47.4476869",
        "province": "کرمانشاه",
        "state": "هرسین",
        "city": "بیستون"
    },
    {
        "id": "271",
        "latitude": "34° 16' 12.011",
        "longitude": "47° 34' 49.346",
        "lat_decimal": "34.2700031",
        "lon_decimal": "47.5803739",
        "province": "کرمانشاه",
        "state": "هرسین",
        "city": "هرسین"
    },
    {
        "id": "272",
        "latitude": "34° 44' 19.039",
        "longitude": "46° 9' 5.810",
        "lat_decimal": "34.7386219",
        "lon_decimal": "46.1516139",
        "province": "کرمانشاه",
        "state": "ثلاث باباجانی",
        "city": "تازه آباد"
    },
    {
        "id": "273",
        "latitude": "34° 50' 0.240",
        "longitude": "45° 50' 30.912",
        "lat_decimal": "34.8334000",
        "lon_decimal": "45.8419200",
        "province": "کرمانشاه",
        "state": "ثلاث باباجانی",
        "city": "ازگله"
    },
    {
        "id": "274",
        "latitude": "34° 20' 38.688",
        "longitude": "46° 24' 57.089",
        "lat_decimal": "34.3440800",
        "lon_decimal": "46.4158581",
        "province": "کرمانشاه",
        "state": "دالاهو",
        "city": "گهواره"
    },
    {
        "id": "275",
        "latitude": "",
        "longitude": "",
        "lat_decimal": null,
        "lon_decimal": null,
        "province": "کرمانشاه",
        "state": "دالاهو",
        "city": "کرند"
    },
    {
        "id": "276",
        "latitude": "",
        "longitude": "",
        "lat_decimal": null,
        "lon_decimal": null,
        "province": "کرمانشاه",
        "state": "دالاهو",
        "city": "ریجاب"
    },
    {
        "id": "277",
        "latitude": "34° 55' 50.844",
        "longitude": "46° 27' 39.992",
        "lat_decimal": "34.9307900",
        "lon_decimal": "46.4611089",
        "province": "کرمانشاه",
        "state": "روانسر",
        "city": "شاهو"
    },
    {
        "id": "278",
        "latitude": "34° 42' 58.248",
        "longitude": "46° 39' 21.852",
        "lat_decimal": "34.7161800",
        "lon_decimal": "46.6560700",
        "province": "کرمانشاه",
        "state": "روانسر",
        "city": "روانسر"
    },
    {
        "id": "279",
        "latitude": "32° 25' 28.718",
        "longitude": "48° 22' 23.156",
        "lat_decimal": "32.4246439",
        "lon_decimal": "48.3730989",
        "province": "خوزستان",
        "state": "اندیمشک",
        "city": "اندیمشک"
    },
    {
        "id": "280",
        "latitude": "32° 25' 28.718",
        "longitude": "48° 22' 23.156",
        "lat_decimal": "32.4246439",
        "lon_decimal": "48.3730989",
        "province": "خوزستان",
        "state": "اندیمشک",
        "city": "آزادی"
    },
    {
        "id": "281",
        "latitude": "32° 25' 28.718",
        "longitude": "48° 22' 23.156",
        "lat_decimal": "32.4246439",
        "lon_decimal": "48.3730989",
        "province": "خوزستان",
        "state": "اندیمشک",
        "city": "چم گلک"
    },
    {
        "id": "282",
        "latitude": "31° 14' 31.247",
        "longitude": "48° 40' 16.583",
        "lat_decimal": "31.2420131",
        "lon_decimal": "48.6712731",
        "province": "خوزستان",
        "state": "اهواز",
        "city": "اهواز"
    },
    {
        "id": "283",
        "latitude": "31° 14' 31.247",
        "longitude": "48° 40' 16.583",
        "lat_decimal": "31.2420131",
        "lon_decimal": "48.6712731",
        "province": "خوزستان",
        "state": "اهواز",
        "city": "الهایی"
    },
    {
        "id": "284",
        "latitude": "29° 58' 41.095",
        "longitude": "48° 31' 0.570",
        "lat_decimal": "29.9780819",
        "lon_decimal": "48.5168250",
        "province": "خوزستان",
        "state": "آبادان",
        "city": "اروندکنار"
    },
    {
        "id": "285",
        "latitude": "30° 21' 21.629",
        "longitude": "48° 16' 48.194",
        "lat_decimal": "30.3560081",
        "lon_decimal": "48.2800539",
        "province": "خوزستان",
        "state": "آبادان",
        "city": "آبادان"
    },
    {
        "id": "286",
        "latitude": "30° 12' 0.166",
        "longitude": "48° 33' 11.480",
        "lat_decimal": "30.2000461",
        "lon_decimal": "48.5531889",
        "province": "خوزستان",
        "state": "آبادان",
        "city": "چویبده"
    },
    {
        "id": "287",
        "latitude": "32° 39' 48.071",
        "longitude": "48° 14' 44.232",
        "lat_decimal": "32.6633531",
        "lon_decimal": "48.2456200",
        "province": "خوزستان",
        "state": "اندیمشک",
        "city": "حسینیه"
    },
    {
        "id": "288",
        "latitude": "32° 25' 28.718",
        "longitude": "48° 22' 23.156",
        "lat_decimal": "32.4246439",
        "lon_decimal": "48.3730989",
        "province": "خوزستان",
        "state": "اندیمشک",
        "city": "بیدروبه"
    },
    {
        "id": "289",
        "latitude": "31° 42' 35.842",
        "longitude": "50° 17' 18.704",
        "lat_decimal": "31.7099561",
        "lon_decimal": "50.2885289",
        "province": "خوزستان",
        "state": "ایذه",
        "city": "دهدز"
    },
    {
        "id": "290",
        "latitude": "32° 22' 44.022",
        "longitude": "48° 25' 9.484",
        "lat_decimal": "32.3788950",
        "lon_decimal": "48.4193011",
        "province": "خوزستان",
        "state": "دزفول",
        "city": "دزفول"
    },
    {
        "id": "291",
        "latitude": "32° 22' 44.022",
        "longitude": "48° 25' 9.484",
        "lat_decimal": "32.3788950",
        "lon_decimal": "48.4193011",
        "province": "خوزستان",
        "state": "دزفول",
        "city": "شمس آباد"
    },
    {
        "id": "292",
        "latitude": "32° 22' 44.022",
        "longitude": "48° 25' 9.484",
        "lat_decimal": "32.3788950",
        "lon_decimal": "48.4193011",
        "province": "خوزستان",
        "state": "دزفول",
        "city": "شهر امام"
    },
    {
        "id": "293",
        "latitude": "32° 14' 52.246",
        "longitude": "48° 25' 17.432",
        "lat_decimal": "32.2478461",
        "lon_decimal": "48.4215089",
        "province": "خوزستان",
        "state": "دزفول",
        "city": "صفی آباد"
    },
    {
        "id": "294",
        "latitude": "32° 13' 40.318",
        "longitude": "48° 25' 28.056",
        "lat_decimal": "32.2278661",
        "lon_decimal": "48.4244600",
        "province": "خوزستان",
        "state": "دزفول",
        "city": "میانرود"
    },
    {
        "id": "295",
        "latitude": "31° 49' 50.462",
        "longitude": "49° 51' 53.766",
        "lat_decimal": "31.8306839",
        "lon_decimal": "49.8649350",
        "province": "خوزستان",
        "state": "ایذه",
        "city": "ایذه"
    },
    {
        "id": "296",
        "latitude": "30° 26' 19.316",
        "longitude": "49° 4' 32.423",
        "lat_decimal": "30.4386989",
        "lon_decimal": "49.0756731",
        "province": "خوزستان",
        "state": "بندرماهشهر",
        "city": "بندرامام خمینی"
    },
    {
        "id": "297",
        "latitude": "30° 28' 10.092",
        "longitude": "49° 10' 48.029",
        "lat_decimal": "30.4694700",
        "lon_decimal": "49.1800081",
        "province": "خوزستان",
        "state": "بندرماهشهر",
        "city": "بندرماهشهر"
    },
    {
        "id": "298",
        "latitude": "30° 42' 48.827",
        "longitude": "49° 10' 36.725",
        "lat_decimal": "30.7135631",
        "lon_decimal": "49.1768681",
        "province": "خوزستان",
        "state": "بندرماهشهر",
        "city": "چمران"
    },
    {
        "id": "299",
        "latitude": "30° 35' 46.550",
        "longitude": "50° 14' 29.792",
        "lat_decimal": "30.5962639",
        "lon_decimal": "50.2416089",
        "province": "خوزستان",
        "state": "بهبهان",
        "city": "بهبهان"
    },
    {
        "id": "300",
        "latitude": "30° 35' 46.550",
        "longitude": "50° 14' 29.792",
        "lat_decimal": "30.5962639",
        "lon_decimal": "50.2416089",
        "province": "خوزستان",
        "state": "بهبهان",
        "city": "منصوریه"
    },
    {
        "id": "301",
        "latitude": "30° 35' 46.550",
        "longitude": "50° 14' 29.792",
        "lat_decimal": "30.5962639",
        "lon_decimal": "50.2416089",
        "province": "خوزستان",
        "state": "بهبهان",
        "city": "تشان"
    },
    {
        "id": "302",
        "latitude": "30° 26' 41.348",
        "longitude": "48° 10' 43.644",
        "lat_decimal": "30.4448189",
        "lon_decimal": "48.1787900",
        "province": "خوزستان",
        "state": "خرمشهر",
        "city": "خرمشهر"
    },
    {
        "id": "303",
        "latitude": "30° 24' 24.804",
        "longitude": "48° 11' 43.184",
        "lat_decimal": "30.4068900",
        "lon_decimal": "48.1953289",
        "province": "خوزستان",
        "state": "خرمشهر",
        "city": "مقاومت"
    },
    {
        "id": "304",
        "latitude": "30° 21' 38.354",
        "longitude": "48° 12' 37.426",
        "lat_decimal": "30.3606539",
        "lon_decimal": "48.2103961",
        "province": "خوزستان",
        "state": "خرمشهر",
        "city": "مینوشهر"
    },
    {
        "id": "305",
        "latitude": "31° 43' 17.900",
        "longitude": "47° 58' 52.136",
        "lat_decimal": "31.7216389",
        "lon_decimal": "47.9811489",
        "province": "خوزستان",
        "state": "دشت آزادگان",
        "city": "بستان"
    },
    {
        "id": "306",
        "latitude": "32° 23' 46.410",
        "longitude": "48° 34' 42.748",
        "lat_decimal": "32.3962250",
        "lon_decimal": "48.5785411",
        "province": "خوزستان",
        "state": "دزفول",
        "city": "حمزه"
    },
    {
        "id": "307",
        "latitude": "32° 29' 38.648",
        "longitude": "48° 50' 3.610",
        "lat_decimal": "32.4940689",
        "lon_decimal": "48.8343361",
        "province": "خوزستان",
        "state": "دزفول",
        "city": "سالند"
    },
    {
        "id": "308",
        "latitude": "31° 57' 52.787",
        "longitude": "49° 17' 10.813",
        "lat_decimal": "31.9646631",
        "lon_decimal": "49.2863369",
        "province": "خوزستان",
        "state": "مسجدسلیمان",
        "city": "گلگیر"
    },
    {
        "id": "309",
        "latitude": "32° 22' 44.022",
        "longitude": "48° 25' 9.484",
        "lat_decimal": "32.3788950",
        "lon_decimal": "48.4193011",
        "province": "خوزستان",
        "state": "دزفول",
        "city": "سیاه منصور"
    },
    {
        "id": "310",
        "latitude": "31° 57' 52.787",
        "longitude": "49° 17' 10.813",
        "lat_decimal": "31.9646631",
        "lon_decimal": "49.2863369",
        "province": "خوزستان",
        "state": "مسجدسلیمان",
        "city": "مسجدسلیمان"
    },
    {
        "id": "311",
        "latitude": "32° 12' 34.128",
        "longitude": "48° 32' 44.002",
        "lat_decimal": "32.2094800",
        "lon_decimal": "48.5455561",
        "province": "خوزستان",
        "state": "دزفول",
        "city": "چغامیش"
    },
    {
        "id": "312",
        "latitude": "31° 33' 31.014",
        "longitude": "48° 11' 22.517",
        "lat_decimal": "31.5586150",
        "lon_decimal": "48.1895881",
        "province": "خوزستان",
        "state": "دشت آزادگان",
        "city": "سوسنگرد"
    },
    {
        "id": "313",
        "latitude": "",
        "longitude": "",
        "lat_decimal": null,
        "lon_decimal": null,
        "province": "خوزستان",
        "state": "دشت آزادگان",
        "city": "کوت سیدنعیم"
    },
    {
        "id": "314",
        "latitude": "",
        "longitude": "",
        "lat_decimal": null,
        "lon_decimal": null,
        "province": "خوزستان",
        "state": "دشت آزادگان",
        "city": "ابوحمیظه"
    },
    {
        "id": "315",
        "latitude": "31° 15' 33.178",
        "longitude": "49° 36' 19.127",
        "lat_decimal": "31.2592161",
        "lon_decimal": "49.6053131",
        "province": "خوزستان",
        "state": "رامهرمز",
        "city": "رامهرمز"
    },
    {
        "id": "316",
        "latitude": "30° 38' 28.547",
        "longitude": "48° 39' 48.730",
        "lat_decimal": "30.6412631",
        "lon_decimal": "48.6635361",
        "province": "خوزستان",
        "state": "شادگان",
        "city": "شادگان"
    },
    {
        "id": "317",
        "latitude": "30° 38' 28.547",
        "longitude": "48° 39' 48.730",
        "lat_decimal": "30.6412631",
        "lon_decimal": "48.6635361",
        "province": "خوزستان",
        "state": "شادگان",
        "city": "خنافره"
    },
    {
        "id": "318",
        "latitude": "30° 44' 41.759",
        "longitude": "48° 25' 45.289",
        "lat_decimal": "30.7449331",
        "lon_decimal": "48.4292469",
        "province": "خوزستان",
        "state": "شادگان",
        "city": "دارخوین"
    },
    {
        "id": "319",
        "latitude": "32° 3' 16.704",
        "longitude": "48° 50' 4.981",
        "lat_decimal": "32.0546400",
        "lon_decimal": "48.8347169",
        "province": "خوزستان",
        "state": "شوشتر",
        "city": "شوشتر"
    },
    {
        "id": "320",
        "latitude": "32° 5' 17.092",
        "longitude": "48° 46' 3.785",
        "lat_decimal": "32.0880811",
        "lon_decimal": "48.7677181",
        "province": "خوزستان",
        "state": "شوشتر",
        "city": "شرافت"
    },
    {
        "id": "321",
        "latitude": "32° 3' 16.704",
        "longitude": "48° 50' 4.981",
        "lat_decimal": "32.0546400",
        "lon_decimal": "48.8347169",
        "province": "خوزستان",
        "state": "شوشتر",
        "city": "سرداران"
    },
    {
        "id": "322",
        "latitude": "31° 51' 23.911",
        "longitude": "48° 45' 20.851",
        "lat_decimal": "31.8566419",
        "lon_decimal": "48.7557919",
        "province": "خوزستان",
        "state": "شوشتر",
        "city": "گوریه"
    },
    {
        "id": "323",
        "latitude": "32° 3' 31.266",
        "longitude": "48° 18' 3.139",
        "lat_decimal": "32.0586850",
        "lon_decimal": "48.3008719",
        "province": "خوزستان",
        "state": "شوش",
        "city": "شاوور"
    },
    {
        "id": "324",
        "latitude": "31° 52' 26.767",
        "longitude": "48° 20' 28.014",
        "lat_decimal": "31.8741019",
        "lon_decimal": "48.3411150",
        "province": "خوزستان",
        "state": "شوش",
        "city": "الوان"
    },
    {
        "id": "325",
        "latitude": "32° 12' 24.282",
        "longitude": "48° 15' 26.737",
        "lat_decimal": "32.2067450",
        "lon_decimal": "48.2574269",
        "province": "خوزستان",
        "state": "شوش",
        "city": "شوش"
    },
    {
        "id": "326",
        "latitude": "32° 8' 39.185",
        "longitude": "48° 23' 25.890",
        "lat_decimal": "32.1442181",
        "lon_decimal": "48.3905250",
        "province": "خوزستان",
        "state": "شوش",
        "city": "حر"
    },
    {
        "id": "327",
        "latitude": "32° 12' 24.282",
        "longitude": "48° 15' 26.737",
        "lat_decimal": "32.2067450",
        "lon_decimal": "48.2574269",
        "province": "خوزستان",
        "state": "شوش",
        "city": "فتح المبین"
    },
    {
        "id": "328",
        "latitude": "31° 30' 47.898",
        "longitude": "49° 53' 25.778",
        "lat_decimal": "31.5133050",
        "lon_decimal": "49.8904939",
        "province": "خوزستان",
        "state": "باغ ملک",
        "city": "باغ ملک"
    },
    {
        "id": "329",
        "latitude": "31° 37' 53.393",
        "longitude": "49° 53' 24.644",
        "lat_decimal": "31.6314981",
        "lon_decimal": "49.8901789",
        "province": "خوزستان",
        "state": "باغ ملک",
        "city": "قلعه تل"
    },
    {
        "id": "330",
        "latitude": "31° 21' 56.675",
        "longitude": "50° 4' 53.018",
        "lat_decimal": "31.3657431",
        "lon_decimal": "50.0813939",
        "province": "خوزستان",
        "state": "باغ ملک",
        "city": "صیدون"
    },
    {
        "id": "331",
        "latitude": "31° 22' 20.881",
        "longitude": "49° 48' 49.183",
        "lat_decimal": "31.3724669",
        "lon_decimal": "49.8136619",
        "province": "خوزستان",
        "state": "باغ ملک",
        "city": "میداود"
    },
    {
        "id": "332",
        "latitude": "30° 52' 29.824",
        "longitude": "49° 51' 15.970",
        "lat_decimal": "30.8749511",
        "lon_decimal": "49.8544361",
        "province": "خوزستان",
        "state": "امیدیه",
        "city": "جایزان"
    },
    {
        "id": "333",
        "latitude": "30° 45' 20.185",
        "longitude": "49° 42' 44.104",
        "lat_decimal": "30.7556069",
        "lon_decimal": "49.7122511",
        "province": "خوزستان",
        "state": "امیدیه",
        "city": "امیدیه"
    },
    {
        "id": "334",
        "latitude": "32° 19' 47.345",
        "longitude": "49° 5' 34.735",
        "lat_decimal": "32.3298181",
        "lon_decimal": "49.0929819",
        "province": "خوزستان",
        "state": "لالی",
        "city": "لالی"
    },
    {
        "id": "335",
        "latitude": "30° 13' 25.273",
        "longitude": "49° 42' 41.040",
        "lat_decimal": "30.2236869",
        "lon_decimal": "49.7114000",
        "province": "خوزستان",
        "state": "هندیجان",
        "city": "هندیجان"
    },
    {
        "id": "336",
        "latitude": "30° 28' 5.358",
        "longitude": "49° 40' 58.836",
        "lat_decimal": "30.4681550",
        "lon_decimal": "49.6830100",
        "province": "خوزستان",
        "state": "هندیجان",
        "city": "زهره"
    },
    {
        "id": "337",
        "latitude": "32° 12' 19.080",
        "longitude": "49° 26' 55.334",
        "lat_decimal": "32.2053000",
        "lon_decimal": "49.4487039",
        "province": "خوزستان",
        "state": "اندیکا",
        "city": "قلعه خواجه"
    },
    {
        "id": "338",
        "latitude": "31° 35' 50.766",
        "longitude": "47° 53' 39.026",
        "lat_decimal": "31.5974350",
        "lon_decimal": "47.8941739",
        "province": "خوزستان",
        "state": "هویزه",
        "city": "رفیع"
    },
    {
        "id": "339",
        "latitude": "30° 53' 33.918",
        "longitude": "49° 24' 31.784",
        "lat_decimal": "30.8927550",
        "lon_decimal": "49.4088289",
        "province": "خوزستان",
        "state": "رامشیر",
        "city": "رامشیر"
    },
    {
        "id": "340",
        "latitude": "31° 0' 38.531",
        "longitude": "49° 26' 16.577",
        "lat_decimal": "31.0107031",
        "lon_decimal": "49.4379381",
        "province": "خوزستان",
        "state": "رامشیر",
        "city": "مشراگه"
    },
    {
        "id": "341",
        "latitude": "32° 14' 33.634",
        "longitude": "48° 50' 46.756",
        "lat_decimal": "32.2426761",
        "lon_decimal": "48.8463211",
        "province": "خوزستان",
        "state": "گتوند",
        "city": "ترکالکی"
    },
    {
        "id": "342",
        "latitude": "32° 11' 38.440",
        "longitude": "48° 51' 27.914",
        "lat_decimal": "32.1940111",
        "lon_decimal": "48.8577539",
        "province": "خوزستان",
        "state": "گتوند",
        "city": "سماله"
    },
    {
        "id": "343",
        "latitude": "32° 14' 49.978",
        "longitude": "48° 49' 4.170",
        "lat_decimal": "32.2472161",
        "lon_decimal": "48.8178250",
        "province": "خوزستان",
        "state": "گتوند",
        "city": "گتوند"
    },
    {
        "id": "344",
        "latitude": "32° 12' 49.219",
        "longitude": "48° 40' 19.862",
        "lat_decimal": "32.2136719",
        "lon_decimal": "48.6721839",
        "province": "خوزستان",
        "state": "گتوند",
        "city": "صالح شهر"
    },
    {
        "id": "345",
        "latitude": "32° 11' 3.502",
        "longitude": "48° 48' 58.126",
        "lat_decimal": "32.1843061",
        "lon_decimal": "48.8161461",
        "province": "خوزستان",
        "state": "گتوند",
        "city": "جنت مکان"
    },
    {
        "id": "346",
        "latitude": "",
        "longitude": "",
        "lat_decimal": null,
        "lon_decimal": null,
        "province": "خوزستان",
        "state": "اندیکا",
        "city": "آبژدان"
    },
    {
        "id": "347",
        "latitude": "31° 26' 44.441",
        "longitude": "49° 31' 59.293",
        "lat_decimal": "31.4456781",
        "lon_decimal": "49.5331369",
        "province": "خوزستان",
        "state": "هفتکل",
        "city": "هفتگل"
    },
    {
        "id": "348",
        "latitude": "31° 27' 38.452",
        "longitude": "48° 4' 38.957",
        "lat_decimal": "31.4606811",
        "lon_decimal": "48.0774881",
        "province": "خوزستان",
        "state": "هویزه",
        "city": "هویزه"
    },
    {
        "id": "349",
        "latitude": "31° 35' 7.256",
        "longitude": "48° 53' 13.250",
        "lat_decimal": "31.5853489",
        "lon_decimal": "48.8870139",
        "province": "خوزستان",
        "state": "باوی",
        "city": "ملاثانی"
    },
    {
        "id": "350",
        "latitude": "31° 29' 2.918",
        "longitude": "48° 52' 28.229",
        "lat_decimal": "31.4841439",
        "lon_decimal": "48.8745081",
        "province": "خوزستان",
        "state": "باوی",
        "city": "ویس"
    },
    {
        "id": "351",
        "latitude": "31° 23' 4.466",
        "longitude": "48° 47' 13.610",
        "lat_decimal": "31.3845739",
        "lon_decimal": "48.7871139",
        "province": "خوزستان",
        "state": "باوی",
        "city": "شیبان"
    },
    {
        "id": "352",
        "latitude": "31° 28' 53.832",
        "longitude": "48° 25' 56.640",
        "lat_decimal": "31.4816200",
        "lon_decimal": "48.4324000",
        "province": "خوزستان",
        "state": "حمیدیه",
        "city": "حمیدیه"
    },
    {
        "id": "353",
        "latitude": "30° 41' 58.992",
        "longitude": "49° 49' 47.168",
        "lat_decimal": "30.6997200",
        "lon_decimal": "49.8297689",
        "province": "خوزستان",
        "state": "آغاجاری",
        "city": "آغاجاری"
    },
    {
        "id": "354",
        "latitude": "",
        "longitude": "",
        "lat_decimal": null,
        "lon_decimal": null,
        "province": "خوزستان",
        "state": "کارون",
        "city": "کوت عبداله"
    },
    {
        "id": "355",
        "latitude": "31° 8' 34.739",
        "longitude": "52° 39' 0.418",
        "lat_decimal": "31.1429831",
        "lon_decimal": "52.6501161",
        "province": "فارس",
        "state": "آباده",
        "city": "آباده"
    },
    {
        "id": "356",
        "latitude": "31° 11' 27.856",
        "longitude": "52° 30' 55.559",
        "lat_decimal": "31.1910711",
        "lon_decimal": "52.5154331",
        "province": "فارس",
        "state": "آباده",
        "city": "صغاد"
    },
    {
        "id": "357",
        "latitude": "31° 11' 41.492",
        "longitude": "52° 29' 7.109",
        "lat_decimal": "31.1948589",
        "lon_decimal": "52.4853081",
        "province": "فارس",
        "state": "آباده",
        "city": "بهمن"
    },
    {
        "id": "358",
        "latitude": "31° 31' 1.232",
        "longitude": "52° 7' 29.766",
        "lat_decimal": "31.5170089",
        "lon_decimal": "52.1249350",
        "province": "فارس",
        "state": "آباده",
        "city": "ایزدخواست"
    },
    {
        "id": "359",
        "latitude": "31° 2' 4.160",
        "longitude": "52° 50' 22.405",
        "lat_decimal": "31.0344889",
        "lon_decimal": "52.8395569",
        "province": "فارس",
        "state": "آباده",
        "city": "سورمق"
    },
    {
        "id": "360",
        "latitude": "29° 11' 31.405",
        "longitude": "53° 46' 9.840",
        "lat_decimal": "29.1920569",
        "lon_decimal": "53.7694000",
        "province": "فارس",
        "state": "استهبان",
        "city": "رونیز"
    },
    {
        "id": "361",
        "latitude": "29° 7' 33.841",
        "longitude": "54° 2' 40.657",
        "lat_decimal": "29.1260669",
        "lon_decimal": "54.0446269",
        "province": "فارس",
        "state": "استهبان",
        "city": "استهبان"
    },
    {
        "id": "362",
        "latitude": "29° 1' 12.623",
        "longitude": "54° 14' 43.390",
        "lat_decimal": "29.0201731",
        "lon_decimal": "54.2453861",
        "province": "فارس",
        "state": "استهبان",
        "city": "ایج"
    },
    {
        "id": "363",
        "latitude": "30° 42' 49.010",
        "longitude": "51° 57' 28.591",
        "lat_decimal": "30.7136139",
        "lon_decimal": "51.9579419",
        "province": "فارس",
        "state": "اقلید",
        "city": "دژکرد"
    },
    {
        "id": "364",
        "latitude": "30° 42' 38.084",
        "longitude": "52° 10' 34.018",
        "lat_decimal": "30.7105789",
        "lon_decimal": "52.1761161",
        "province": "فارس",
        "state": "اقلید",
        "city": "سده"
    },
    {
        "id": "365",
        "latitude": "30° 54' 6.912",
        "longitude": "52° 42' 18.943",
        "lat_decimal": "30.9019200",
        "lon_decimal": "52.7052619",
        "province": "فارس",
        "state": "اقلید",
        "city": "اقلید"
    },
    {
        "id": "366",
        "latitude": "30° 54' 6.912",
        "longitude": "52° 42' 18.943",
        "lat_decimal": "30.9019200",
        "lon_decimal": "52.7052619",
        "province": "فارس",
        "state": "اقلید",
        "city": "حسن اباد"
    },
    {
        "id": "367",
        "latitude": "28° 56' 20.180",
        "longitude": "53° 18' 47.138",
        "lat_decimal": "28.9389389",
        "lon_decimal": "53.3130939",
        "province": "فارس",
        "state": "جهرم",
        "city": "خاوران"
    },
    {
        "id": "368",
        "latitude": "28° 58' 6.402",
        "longitude": "53° 12' 32.915",
        "lat_decimal": "28.9684450",
        "lon_decimal": "53.2091431",
        "province": "فارس",
        "state": "جهرم",
        "city": "باب انار"
    },
    {
        "id": "369",
        "latitude": "28° 42' 3.910",
        "longitude": "52° 57' 30.568",
        "lat_decimal": "28.7010861",
        "lon_decimal": "52.9584911",
        "province": "فارس",
        "state": "جهرم",
        "city": "دوزه"
    },
    {
        "id": "370",
        "latitude": "28° 38' 26.430",
        "longitude": "53° 38' 22.103",
        "lat_decimal": "28.6406750",
        "lon_decimal": "53.6394731",
        "province": "فارس",
        "state": "جهرم",
        "city": "قطب آباد"
    },
    {
        "id": "371",
        "latitude": "28° 29' 41.708",
        "longitude": "53° 34' 0.790",
        "lat_decimal": "28.4949189",
        "lon_decimal": "53.5668861",
        "province": "فارس",
        "state": "جهرم",
        "city": "جهرم"
    },
    {
        "id": "372",
        "latitude": "29° 46' 25.799",
        "longitude": "52° 43' 18.404",
        "lat_decimal": "29.7738331",
        "lon_decimal": "52.7217789",
        "province": "فارس",
        "state": "شیراز",
        "city": "زرقان"
    },
    {
        "id": "373",
        "latitude": "29° 47' 56.663",
        "longitude": "52° 39' 7.459",
        "lat_decimal": "29.7990731",
        "lon_decimal": "52.6520719",
        "province": "فارس",
        "state": "شیراز",
        "city": "لپویی"
    },
    {
        "id": "374",
        "latitude": "30° 13' 55.438",
        "longitude": "51° 59' 31.380",
        "lat_decimal": "30.2320661",
        "lon_decimal": "51.9920500",
        "province": "فارس",
        "state": "سپیدان",
        "city": "اردکان"
    },