[{"id":"25960293","name_fa":"\u062a\u0647\u0631\u0627\u0646","name_en":"Tehran","latitude":"35.6893","longitude":"51.3896"},{"id":"26038567","name_fa":"\u0627\u0635\u0641\u0647\u0627\u0646","name_en":"Isfahan","latitude":"32.6708","longitude":"51.665"},{"id":"26038568","name_fa":"\u0645\u0634\u0647\u062f","name_en":"Mashhad","latitude":"36.2975","longitude":"59.6059"},{"id":"26038590","name_fa":"\u062a\u0628\u0631\u06cc\u0632","name_en":"Tabriz","latitude":"38.0739","longitude":"46.2979"},{"id":"26082288","name_fa":"\u0642\u0632\u0648\u06cc\u0646","name_en":"Qazvin","latitude":"36.2804","longitude":"50.0067"},{"id":"26082452","name_fa":"\u0634\u064a\u0631\u0627\u0632","name_en":"Shiraz","latitude":"29.606","longitude":"52.5378"},{"id":"26084263","name_fa":"\u062c\u0646\u062f\u0642","name_en":"Jandaq","latitude":"34.0423","longitude":"54.415"},{"id":"26232648","name_fa":"\u062e\u0631\u0627\u0646\u0642","name_en":"Kharanaq","latitude":"32.3453","longitude":"54.6675"},{"id":"26399215","name_fa":"\u0627\u0631\u0648\u0645\u06cc\u0647","name_en":"Urmia","latitude":"37.5483","longitude":"45.0667"},{"id":"26476202","name_fa":"\u0645\u06cc\u0646\u0627\u0628","name_en":"Minab","latitude":"27.1506","longitude":"57.0753"},{"id":"26476270","name_fa":"\u06a9\u0647\u0646\u0648\u062c","name_en":"Kahnuj","latitude":"27.9502","longitude":"57.7026"},{"id":"26604766","name_fa":"\u0632\u0627\u0647\u062f\u0627\u0646","name_en":"Zahedan","latitude":"29.4929","longitude":"60.8503"},{"id":"27149665","name_fa":"\u0631\u06cc\u0646\u0647","name_en":"Rineh","latitude":"35.882","longitude":"52.1697"},{"id":"27403186","name_fa":"\u0646\u0627\u06cc\u06cc\u0646","name_en":"Na'in","latitude":"32.8611","longitude":"53.086"},{"id":"27408474","name_fa":"\u0632\u0627\u0631\u0686","name_en":"Zarch","latitude":"31.9903","longitude":"54.2354"},{"id":"27442136","name_fa":"\u0628\u0646\u062f\u0631 \u0627\u0646\u0632\u0644\u06cc","name_en":"Bandar-e Anzali","latitude":"37.4716","longitude":"49.4686"},{"id":"27557313","name_fa":"\u0647\u0645\u062f\u0627\u0646","name_en":"Hamedan","latitude":"34.7993","longitude":"48.5152"},{"id":"29070193","name_fa":"\u0646\u0638\u0631\u0622\u0628\u0627\u062f","name_en":"Nazarabad","latitude":"35.9559","longitude":"50.6097"},{"id":"29071181","name_fa":"\u0622\u0628\u06cc\u06a9","name_en":"Abyek","latitude":"36.0417","longitude":"50.5321"},{"id":"29071221","name_fa":"\u0645\u062d\u0645\u062f\u06cc\u0647","name_en":"Mohammadiyeh","latitude":"36.2256","longitude":"50.1878"},{"id":"29362857","name_fa":"\u06a9\u0648\u0647\u06cc\u0646","name_en":"Kuhin","latitude":"36.3701","longitude":"49.6631"},{"id":"30115597","name_fa":"\u0627\u0631\u062f\u0628\u06cc\u0644","name_en":"Ardabil","latitude":"38.2516","longitude":"48.2972"},{"id":"30214401","name_fa":"\u0644\u0648\u0634\u0627\u0646","name_en":"Lowshan","latitude":"36.6279","longitude":"49.5162"},{"id":"30291253","name_fa":"\u0631\u0648\u062f\u0628\u0627\u0631","name_en":"Rudbar","latitude":"36.8219","longitude":"49.4268"},{"id":"30291677","name_fa":"\u0631\u0633\u062a\u0645 \u0622\u0628\u0627\u062f","name_en":"Rostam Abad","latitude":"36.8974","longitude":"49.4916"},{"id":"32123707","name_fa":"\u062e\u0633\u0631\u0648\u0634\u0627\u0647","name_en":"Khosrowshah","latitude":"37.9513","longitude":"46.0509"},{"id":"32132431","name_fa":"\u0635\u0648\u0641\u06cc\u0627\u0646","name_en":"Sufian","latitude":"38.2769","longitude":"45.9814"},{"id":"32637964","name_fa":"\u0633\u0627\u0648\u0647","name_en":"Saveh","latitude":"35.0196","longitude":"50.3652"},{"id":"32662365","name_fa":"\u062f\u0632\u0641\u0648\u0644","name_en":"Dezful","latitude":"32.378","longitude":"48.4032"},{"id":"32662367","name_fa":"\u0627\u0646\u062f\u06cc\u0645\u0634\u06a9","name_en":"Andimeshk","latitude":"32.4583","longitude":"48.3521"},{"id":"32662667","name_fa":"\u0634\u0648\u0634","name_en":"Shush","latitude":"32.2004","longitude":"48.249"},{"id":"32663267","name_fa":"\u062f\u0648\u0631\u0648\u062f","name_en":"Dorud","latitude":"33.4993","longitude":"49.053"},{"id":"32663279","name_fa":"\u06a9\u0631\u0645\u0627\u0646\u0634\u0627\u0647","name_en":"Kermanshah","latitude":"34.3239","longitude":"47.0736"},{"id":"32663613","name_fa":"\u0628\u0627\u0646\u0647","name_en":"Baneh","latitude":"35.9968","longitude":"45.8853"},{"id":"32664078","name_fa":"\u0645\u0631\u0627\u063a\u0647","name_en":"Maragheh","latitude":"37.3913","longitude":"46.2436"},{"id":"32664146","name_fa":"\u0628\u0646\u0627\u0628","name_en":"Bonab","latitude":"37.3409","longitude":"46.0505"},{"id":"32671869","name_fa":"\u0622\u0630\u0631\u0634\u0647\u0631","name_en":"Azarshahr","latitude":"37.7577","longitude":"45.9781"},{"id":"32672048","name_fa":"\u0645\u06cc\u0627\u0646\u0647","name_en":"Mianeh","latitude":"37.4284","longitude":"47.7058"},{"id":"32673030","name_fa":"\u0633\u0642\u0632","name_en":"Saqqez","latitude":"36.2427","longitude":"46.2705"},{"id":"32673155","name_fa":"\u0645\u0647\u0627\u0628\u0627\u062f","name_en":"Mahabad","latitude":"36.7652","longitude":"45.7218"},{"id":"32673769","name_fa":"\u0627\u0645\u0644\u0634","name_en":"Amlash","latitude":"37.0962","longitude":"50.1844"},{"id":"32674028","name_fa":"\u0628\u0627\u0628\u0644","name_en":"Babol","latitude":"36.5453","longitude":"52.6847"},{"id":"32675333","name_fa":"\u0633\u0628\u0632\u0648\u0627\u0631","name_en":"Sabzevar","latitude":"36.2134","longitude":"57.6809"},{"id":"32675715","name_fa":"\u0646\u06cc\u0634\u0627\u0628\u0648\u0631","name_en":"Neyshabur","latitude":"36.2106","longitude":"58.7922"},{"id":"32676699","name_fa":"\u0634\u0647\u0631\u06a9\u0631\u062f","name_en":"Shahr-e Kord","latitude":"32.3257","longitude":"50.8497"},{"id":"32677634","name_fa":"\u0628\u06cc\u0631\u062c\u0646\u062f","name_en":"Birjand","latitude":"32.8634","longitude":"59.2177"},{"id":"32677945","name_fa":"\u06a9\u0631\u0645\u0627\u0646","name_en":"Kerman","latitude":"30.2924","longitude":"57.0646"},{"id":"32677946","name_fa":"\u0633\u064a\u0631\u062c\u0627\u0646","name_en":"Sirjan","latitude":"29.4459","longitude":"55.6705"},{"id":"32678002","name_fa":"\u0628\u0645","name_en":"Bam","latitude":"29.106","longitude":"58.3566"},{"id":"32678220","name_fa":"\u0632\u0627\u0628\u0644","name_en":"Zabol","latitude":"31.0278","longitude":"61.4948"},{"id":"32826329","name_fa":"\u0622\u0628\u0627\u062f\u0627\u0646","name_en":"Abadan","latitude":"30.3636","longitude":"48.2591"},{"id":"32826331","name_fa":"\u0628\u062c\u0646\u0648\u0631\u062f","name_en":"Bojnurd","latitude":"37.476","longitude":"57.332"},{"id":"32826332","name_fa":"\u0628\u0648\u0634\u0647\u0631","name_en":"Bushehr","latitude":"28.9311","longitude":"50.8458"},{"id":"32826994","name_fa":"\u062e\u0648\u06cc","name_en":"Khoy","latitude":"38.5504","longitude":"44.9535"},{"id":"32827436","name_fa":"\u0645\u0633\u062c\u062f \u0633\u0644\u06cc\u0645\u0627\u0646","name_en":"Masjed Soleyman","latitude":"31.9461","longitude":"49.3013"},{"id":"32828378","name_fa":"\u0632\u0646\u062c\u0627\u0646","name_en":"Zanjan","latitude":"36.67","longitude":"48.4795"},{"id":"32889948","name_fa":"\u0645\u0631\u0646\u062f","name_en":"Marand","latitude":"38.4306","longitude":"45.7741"},{"id":"171461266","name_fa":"\u0642\u0631\u0647 \u0636\u06cc\u0627\u0621\u0627\u0644\u062f\u06cc\u0646","name_en":"Qaraziadin","latitude":"38.89","longitude":"45.0282"},{"id":"172794981","name_fa":"\u062c\u0644\u0641\u0627","name_en":"Julfa","latitude":"38.9541","longitude":"45.627"},{"id":"180544443","name_fa":"\u0633\u0644\u0645\u0627\u0633","name_en":"Salmas","latitude":"38.1969","longitude":"44.7685"},{"id":"181296509","name_fa":"\u067e\u06cc\u0631\u0627\u0646\u0634\u0647\u0631","name_en":"Piranshahr","latitude":"36.7003","longitude":"45.1401"},{"id":"181315829","name_fa":"\u0647\u0627\u062f\u06cc\u0634\u0647\u0631","name_en":"Hadishahr","latitude":"38.8417","longitude":"45.6648"},{"id":"181327482","name_fa":"\u0628\u0633\u062a\u0627\u0646 \u0622\u0628\u0627\u062f","name_en":"Bostanabad","latitude":"37.8429","longitude":"46.834"},{"id":"181414801","name_fa":"\u062a\u06cc\u06a9\u0627\u0646 \u062a\u067e\u0647","name_en":"Tikab","latitude":"36.4008","longitude":"47.1117"},{"id":"201299775","name_fa":"\u0631\u0648\u06cc\u0627\u0646","name_en":"Royan","latitude":"36.5696","longitude":"51.9623"},{"id":"231906831","name_fa":"\u067e\u0627\u0631\u0633 \u0622\u0628\u0627\u062f","name_en":"Parsabad","latitude":"39.6462","longitude":"47.9186"},{"id":"234330550","name_fa":"\u0645\u0646\u062c\u0648\u0627\u0646","name_en":"Minjivan","latitude":"39.0286","longitude":"46.7158"},{"id":"234526006","name_fa":"\u06a9\u0631\u062c","name_en":"Karaj","latitude":"35.8225","longitude":"50.9905"},{"id":"235270740","name_fa":"\u0628\u06cc\u062c\u0627\u0631","name_en":"Bijar","latitude":"35.8721","longitude":"47.6001"},{"id":"235279115","name_fa":"\u0642\u0631\u0648\u0647","name_en":"Qorveh","latitude":"35.1679","longitude":"47.8009"},{"id":"237556098","name_fa":"\u0627\u0634\u0646\u0648\u06cc\u0647","name_en":"Oshnaviyeh","latitude":"37.0418","longitude":"45.0984"},{"id":"244176127","name_fa":"\u0628\u0627\u0632\u0631\u06af\u0627\u0646","name_en":"Bazargan","latitude":"39.3887","longitude":"44.3877"},{"id":"248708371","name_fa":"\u0646\u06cc\u200c\u0631\u06cc\u0632","name_en":"Neyriz","latitude":"29.1973","longitude":"54.3268"},{"id":"248772356","name_fa":"\u0632\u0631\u0642\u0627\u0646","name_en":"Zarqan","latitude":"29.7743","longitude":"52.7216"},{"id":"248776568","name_fa":"\u0633\u0631\u0648\u0633\u062a\u0627\u0646","name_en":"Sarvestan","latitude":"29.2722","longitude":"53.2216"},{"id":"248777720","name_fa":"\u0627\u0633\u062a\u0647\u0628\u0627\u0646","name_en":"Estahban","latitude":"29.1252","longitude":"54.0405"},{"id":"248779500","name_fa":"\u0641\u0633\u0627","name_en":"Fasa","latitude":"28.9366","longitude":"53.6511"},{"id":"248783208","name_fa":"\u062f\u0627\u0631\u0627\u0628","name_en":"Darab","latitude":"28.7532","longitude":"54.5481"},{"id":"248783808","name_fa":"\u0642\u0637\u0631\u0648\u06cc\u0647","name_en":"Qatruyeh","latitude":"29.1461","longitude":"54.7027"},{"id":"248842190","name_fa":"\u0645\u0627\u0647\u0627\u0646","name_en":"Mahan","latitude":"30.0536","longitude":"57.2883"},{"id":"248862920","name_fa":"\u0631\u0627\u06cc\u0646","name_en":"Rayen","latitude":"29.5981","longitude":"57.4365"},{"id":"249301735","name_fa":"\u0633\u06cc\u0648\u0646\u062f","name_en":"Sivand","latitude":"30.0788","longitude":"52.9225"},{"id":"249307870","name_fa":"\u0627\u0648\u0632","name_en":"Evaz","latitude":"27.7625","longitude":"54.0051"},{"id":"249308233","name_fa":"\u0627\u0628\u0627\u062f\u0647","name_en":"Abadeh","latitude":"31.1627","longitude":"52.649"},{"id":"249309689","name_fa":"\u0644\u0627\u0645\u0631\u062f","name_en":"Lamerd","latitude":"27.3334","longitude":"53.1816"},{"id":"249310458","name_fa":"\u0628\u0627\u0641\u062a","name_en":"Baft","latitude":"29.2356","longitude":"56.6059"},{"id":"249310574","name_fa":"\u0628\u0631\u062f\u0633\u06cc\u0631","name_en":"Bardsir","latitude":"29.9284","longitude":"56.5717"},{"id":"249311304","name_fa":"\u0632\u0631\u0646\u062f","name_en":"Zarand","latitude":"30.8135","longitude":"56.5672"},{"id":"249311493","name_fa":"\u0634\u0647\u0631 \u0628\u0627\u0628\u06a9","name_en":"Shahr-e Babak","latitude":"30.1192","longitude":"55.1243"},{"id":"249312588","name_fa":"\u0631\u0627\u0648\u0631","name_en":"Ravar","latitude":"31.2677","longitude":"56.807"},{"id":"254650882","name_fa":"\u0628\u0647\u0646\u0645\u06cc\u0631","name_en":"Bahnemir","latitude":"36.6703","longitude":"52.7621"},{"id":"264534715","name_fa":"\u0637\u0628\u0633","name_en":"Tabas","latitude":"33.5962","longitude":"56.9249"},{"id":"264538544","name_fa":"\u0641\u0631\u062e\u06cc","name_en":"Farokhi","latitude":"33.8449","longitude":"54.9471"},{"id":"265555072","name_fa":"\u0642\u0648\u0686\u0627\u0646","name_en":"Quchan","latitude":"37.1061","longitude":"58.5087"},{"id":"266486268","name_fa":"\u06a9\u0646\u0648\u06cc\u0633\u062a","name_en":"Kenevist","latitude":"36.2917","longitude":"59.8226"},{"id":"268566060","name_fa":"\u0637\u0627\u0644\u0642\u0627\u0646","name_en":"Taleqan","latitude":"36.1779","longitude":"50.7655"},{"id":"274036022","name_fa":"\u0627\u0645\u06cc\u062f\u06cc\u0647","name_en":"Omidieh","latitude":"30.7569","longitude":"49.7018"},{"id":"280785801","name_fa":"\u062a\u0631\u0628\u062a \u062c\u0627\u0645","name_en":"Torbat-e Jam","latitude":"35.2433","longitude":"60.6263"},{"id":"283421516","name_fa":"\u0637\u0631\u0642\u0628\u0647","name_en":"Torghabeh","latitude":"36.3097","longitude":"59.3741"},{"id":"289057413","name_fa":"\u0647\u0631\u0645\u0632","name_en":"Hormuz","latitude":"27.0955","longitude":"56.4527"},{"id":"291617177","name_fa":"\u0628\u0631\u06cc\u0633","name_en":"Beris","latitude":"25.1359","longitude":"61.1912"},{"id":"291618503","name_fa":"\u0686\u0627\u0628\u0647\u0627\u0631","name_en":"Chabahar","latitude":"25.2935","longitude":"60.6469"},{"id":"291621225","name_fa":"\u06a9\u0646\u0627\u0631\u06a9","name_en":"Konarak","latitude":"25.3605","longitude":"60.3981"},{"id":"292162578","name_fa":"\u0633\u0631 \u0631\u06cc\u06af \u06cc\u06a9","name_en":"Sarr\u012bq-e Meyg\u016bn\u012b","latitude":"27.3003","longitude":"56.277"},{"id":"292167752","name_fa":"\u0686\u0647\u0686\u06a9\u0631","name_en":"Chahchekor","latitude":"27.2784","longitude":"56.3469"},{"id":"295013244","name_fa":"\u0645\u0647\u062f\u06cc \u0634\u0647\u0631","name_en":"Mahdishahr","latitude":"35.7108","longitude":"53.3556"},{"id":"295013246","name_fa":"\u0634\u0647\u0645\u06cc\u0631\u0632\u0627\u062f","name_en":"Shahmirzad","latitude":"35.7735","longitude":"53.328"},{"id":"295013250","name_fa":"\u062f\u0631\u062c\u0632\u06cc\u0646","name_en":"Darjazin","latitude":"35.6539","longitude":"53.338"},{"id":"295926933","name_fa":"\u0628\u0646\u062f\u0631 \u062a\u0631\u06a9\u0645\u0646","name_en":"Bandar-e Torkaman","latitude":"36.8929","longitude":"54.0697"},{"id":"295929073","name_fa":"\u06af\u0645\u06cc\u0634\u200c\u062a\u067e\u0647","name_en":"Gumish Tappeh","latitude":"37.0701","longitude":"54.077"},{"id":"297201895","name_fa":"\u0641\u0627\u0631\u0648\u062c","name_en":"Faruj","latitude":"37.2317","longitude":"58.2193"},{"id":"297201904","name_fa":"\u0634\u06cc\u0631\u0648\u0627\u0646","name_en":"Shirvan","latitude":"37.3954","longitude":"57.93"},{"id":"297202635","name_fa":"\u0622\u0634\u062e\u0627\u0646\u0647","name_en":"Ashkhaneh","latitude":"37.5604","longitude":"56.923"},{"id":"297203246","name_fa":"\u0645\u06cc\u0646\u0648\u062f\u0634\u062a","name_en":"Minudasht","latitude":"37.2289","longitude":"55.3747"},{"id":"297203309","name_fa":"\u0622\u0632\u0627\u062f\u0634\u0647\u0631","name_en":"Azadshahr","latitude":"37.0875","longitude":"55.1726"},{"id":"297684178","name_fa":"\u0645\u06cc\u0631\u062c\u0627\u0648\u0647","name_en":"Mirjaveh","latitude":"29.0149","longitude":"61.4541"},{"id":"300854460","name_fa":"\u0628\u0633\u0637\u0627\u0645","name_en":"Bastam","latitude":"36.4828","longitude":"55.001"},{"id":"300858233","name_fa":"\u06a9\u06cc\u0627\u0633\u0631","name_en":"Kiasar","latitude":"36.2366","longitude":"53.5413"},{"id":"301192864","name_fa":"\u062f\u0627\u0648\u0631\u0632\u0646","name_en":"Davarzan","latitude":"36.3513","longitude":"56.8762"},{"id":"301198375","name_fa":"\u0645\u06cc\u0627\u0645\u06cc","name_en":"Mayamey","latitude":"36.4086","longitude":"55.6546"},{"id":"301435357","name_fa":"\u0641\u0631\u06cc\u0645\u0627\u0646","name_en":"Fariman","latitude":"35.7012","longitude":"59.8465"},{"id":"303698653","name_fa":"\u0647\u0634\u062a\u067e\u0631 \u062a\u0627\u0644\u0634","name_en":"Talesh","latitude":"37.7975","longitude":"48.9042"},{"id":"303698717","name_fa":"\u0631\u0636\u0648\u0627\u0646\u0634\u0647\u0631","name_en":"Rezvanshahr","latitude":"37.5479","longitude":"49.1396"},{"id":"303848033","name_fa":"\u0622\u0644\u0627\u0634\u062a","name_en":"Alasht","latitude":"36.0663","longitude":"52.8366"},{"id":"304568191","name_fa":"\u0628\u0627\u062f\u0631\u0648\u062f","name_en":"Badrud","latitude":"33.6917","longitude":"52.0077"},{"id":"304669513","name_fa":"\u06af\u0631\u0645\u0633\u0627\u0631","name_en":"Garmsar","latitude":"35.2221","longitude":"52.3385"},{"id":"304670156","name_fa":"\u0627\u06cc\u0648\u0627\u0646 \u06a9\u0650\u06cc","name_en":"Eyvane kay","latitude":"35.3442","longitude":"52.0699"},{"id":"307988177","name_fa":"\u062f\u06cc\u0647\u0648\u06a9","name_en":"Deyhuk","latitude":"33.2915","longitude":"57.5174"},{"id":"311501364","name_fa":"\u062e\u0627\u0646\u0647 \u0632\u0646\u06cc\u0627\u0646","name_en":"Khaneh Zenyan","latitude":"29.6717","longitude":"52.152"},{"id":"312441256","name_fa":"\u0622\u0631\u0627\u0646 \u0648 \u0628\u06cc\u062f\u06af\u0644","name_en":"Aran va Bidgol","latitude":"34.0584","longitude":"51.4835"},{"id":"314341491","name_fa":"\u062a\u0627\u06cc\u0628\u0627\u062f","name_en":"Taybad","latitude":"34.7402","longitude":"60.7755"},{"id":"314342394","name_fa":"\u06a9\u0627\u0631\u06cc\u0632","name_en":"Kariz","latitude":"34.8128","longitude":"60.8242"},{"id":"338947993","name_fa":"\u0646\u06a9\u0627","name_en":"Neka","latitude":"36.6512","longitude":"53.2965"},{"id":"338948436","name_fa":"\u0628\u0647\u0634\u0647\u0631","name_en":"Behshahr","latitude":"36.6913","longitude":"53.5433"},{"id":"338974171","name_fa":"\u0639\u0633\u0644\u0648\u06cc\u0647","name_en":"Asalouyeh","latitude":"27.476","longitude":"52.607"},{"id":"344546541","name_fa":"\u0641\u06cc\u0636 \u0622\u0628\u0627\u062f","name_en":"Feyzabad","latitude":"35.0222","longitude":"58.786"},{"id":"344548866","name_fa":"\u0639\u0628\u062f\u0644 \u0622\u0628\u0627\u062f","name_en":"Abdolabad","latitude":"35.0669","longitude":"58.7967"},{"id":"344549839","name_fa":"\u0634\u0627\u062f\u0645\u0647\u0631","name_en":"Shadmehr","latitude":"35.1716","longitude":"59.0367"},{"id":"344559674","name_fa":"\u06a9\u0628\u0648\u062f\u0631\u0622\u0647\u0646\u06af","name_en":"Kabudar Ahang","latitude":"35.2084","longitude":"48.7242"},{"id":"344623598","name_fa":"\u062c\u06cc\u0631\u0641\u062a","name_en":"Jiroft","latitude":"28.6697","longitude":"57.7373"},{"id":"344628216","name_fa":"\u0644\u0627\u0631","name_en":"Lar","latitude":"27.6619","longitude":"54.323"},{"id":"344629434","name_fa":"\u06af\u0631\u0627\u0634","name_en":"Gerash","latitude":"27.6702","longitude":"54.1378"},{"id":"344631880","name_fa":"\u0628\u0646\u062f\u0631 \u0627\u0645\u0627\u0645 \u062e\u0645\u06cc\u0646\u06cc","name_en":"Bandar-e Emam Khomeyni","latitude":"30.5503","longitude":"49.0565"},{"id":"344650643","name_fa":"\u06cc\u0627\u0633\u0648\u062c","name_en":"Yasuj","latitude":"30.6682","longitude":"51.5819"},{"id":"347026180","name_fa":"\u0631\u0627\u0633\u06a9","name_en":"Rasak","latitude":"26.2368","longitude":"61.3988"},{"id":"347029888","name_fa":"\u0627\u06cc\u0631\u0627\u0646\u0634\u0647\u0631","name_en":"Iranshahr","latitude":"27.207","longitude":"60.6883"},{"id":"348295352","name_fa":"\u0627\u0633\u0644\u0627\u0645 \u0622\u0628\u0627\u062f \u063a\u0631\u0628","name_en":"Eslamabad-e Gharb","latitude":"34.1133","longitude":"46.5257"},{"id":"348300869","name_fa":"\u0627\u0633\u062f\u0622\u0628\u0627\u062f","name_en":"Asadabad","latitude":"34.7826","longitude":"48.1218"},{"id":"353119638","name_fa":"\u0628\u0646\u062f\u0631 \u062c\u0627\u0633\u06a9","name_en":"Bandar-e Jask","latitude":"25.6436","longitude":"57.7746"},{"id":"365325113","name_fa":"\u0633\u0648\u0631\u0645\u0642","name_en":"Surmaq","latitude":"31.0339","longitude":"52.8398"},{"id":"387793424","name_fa":"\u0637\u0627\u0644\u062e\u0648\u0646\u0686\u0647","name_en":"Talkhuncheh","latitude":"32.2662","longitude":"51.5639"},{"id":"387818156","name_fa":"\u0627\u06a9\u0628\u0631\u0622\u0628\u0627\u062f","name_en":"Akbarabad","latitude":"29.2466","longitude":"52.7791"},{"id":"403875292","name_fa":"\u062e\u0645\u06cc\u0646","name_en":"Khomein","latitude":"33.6447","longitude":"50.0801"},{"id":"403877769","name_fa":"\u0627\u0632\u0646\u0627","name_en":"Azna","latitude":"33.4568","longitude":"49.4537"},{"id":"409193566","name_fa":"\u0627\u06cc\u0648\u0627\u0646","name_en":"Eywan","latitude":"33.8282","longitude":"46.3096"},{"id":"415872179","name_fa":"\u0628\u0648\u0626\u06cc\u0646 \u0632\u0647\u0631\u0627","name_en":"Boinzahra","latitude":"35.768","longitude":"50.058"},{"id":"415878485","name_fa":"\u062f\u0644\u06cc\u062c\u0627\u0646","name_en":"Delijan","latitude":"33.988","longitude":"50.6863"},{"id":"425017555","name_fa":"\u0645\u06cc\u0644\u0627\u062c\u0631\u062f","name_en":"Milajerd","latitude":"34.6212","longitude":"49.2048"},{"id":"478908972","name_fa":"\u062a\u0648\u0633","name_en":"Toos","latitude":"36.4833","longitude":"59.5169"},{"id":"479092054","name_fa":"\u0628\u0632\u0646\u06af\u0627\u0646","name_en":"Bazangan","latitude":"36.2955","longitude":"60.431"},{"id":"479109268","name_fa":"\u0686\u0646\u0627\u0631\u0627\u0646","name_en":"Chenaran","latitude":"36.6484","longitude":"59.1185"},{"id":"479109269","name_fa":"\u062f\u0631\u06af\u0632","name_en":"Dargaz","latitude":"37.447","longitude":"59.1065"},{"id":"479109270","name_fa":"\u0644\u0637\u0641 \u0622\u0628\u0627\u062f","name_en":"Lotfabad","latitude":"37.5179","longitude":"59.341"},{"id":"480459383","name_fa":"\u0646\u0648\u062f\u0634\u0647","name_en":"Nowdeshah","latitude":"35.1808","longitude":"46.2544"},{"id":"480459390","name_fa":"\u067e\u0627\u0648\u0647","name_en":"Paveh","latitude":"35.0458","longitude":"46.3622"},{"id":"481385529","name_fa":"\u0627\u0628\u0631\u06a9\u0648\u0647","name_en":"Abarkuh","latitude":"31.1325","longitude":"53.2803"},{"id":"481391119","name_fa":"\u0635\u0641\u0627\u0634\u0647\u0631","name_en":"Safashahr","latitude":"30.6114","longitude":"53.1913"},{"id":"481391775","name_fa":"\u0642\u0627\u062f\u0631\u0622\u0628\u0627\u062f","name_en":"Qaderabad","latitude":"30.2742","longitude":"53.2687"},{"id":"510139522","name_fa":"\u062f\u0627\u0645\u063a\u0627\u0646","name_en":"Damghan","latitude":"36.1674","longitude":"54.338"},{"id":"517828842","name_fa":"\u0645\u0632\u0631\u062c","name_en":"Mazerj","latitude":"37.1511","longitude":"58.5507"},{"id":"529657658","name_fa":"\u06af\u0646\u0627\u0628\u0627\u062f","name_en":"Gonabad","latitude":"34.3528","longitude":"58.6832"},{"id":"529660378","name_fa":"\u0628\u062c\u0633\u062a\u0627\u0646","name_en":"Bajestan","latitude":"34.5163","longitude":"58.1835"},{"id":"529959711","name_fa":"\u06a9\u0631\u062f \u06a9\u0648\u06cc","name_en":"Kord Kuy","latitude":"36.7924","longitude":"54.1127"},{"id":"530787382","name_fa":"\u0639\u0644\u06cc \u0622\u0628\u0627\u062f \u06a9\u062a\u0648\u0644","name_en":"Aliabad-e Katul","latitude":"36.9083","longitude":"54.8676"},{"id":"535870221","name_fa":"\u0633\u0631\u0639\u06cc\u0646","name_en":"Sareyn","latitude":"38.1494","longitude":"48.0746"},{"id":"587748039","name_fa":"\u06a9\u0644\u0627\u062a \u0646\u0627\u062f\u0631\u06cc","name_en":"Kalat","latitude":"36.9954","longitude":"59.7642"},{"id":"593880695","name_fa":"\u0633\u0644\u0637\u0627\u0646 \u0622\u0628\u0627\u062f","name_en":"Soltanabad","latitude":"36.4052","longitude":"58.0387"},{"id":"595102404","name_fa":"\u06af\u0644\u0628\u0647\u0627\u0631","name_en":"Golbahar","latitude":"36.5725","longitude":"59.1966"},{"id":"598102341","name_fa":"\u0633\u0631\u062f\u0634\u062a","name_en":"Sardasht","latitude":"36.1553","longitude":"45.48"},{"id":"602526664","name_fa":"\u062e\u0627\u0634","name_en":"Khash","latitude":"28.2204","longitude":"61.2137"},{"id":"602635564","name_fa":"\u0628\u0645\u067e\u0648\u0631","name_en":"Bampur","latitude":"27.1942","longitude":"60.4555"},{"id":"606375748","name_fa":"\u06a9\u0644\u06cc\u0628\u0631","name_en":"Kaleybar","latitude":"38.863","longitude":"47.04"},{"id":"608025870","name_fa":"\u0631\u0636\u0648\u0627\u0646\u0634\u0647\u0631","name_en":"Rezvanshahr","latitude":"32.7032","longitude":"51.105"},{"id":"614482510","name_fa":"\u0627\u0633\u0641\u0631\u0627\u06cc\u0646","name_en":"Esfarayen","latitude":"37.0751","longitude":"57.5096"},{"id":"625959605","name_fa":"\u062e\u0627\u0631\u06a9","name_en":"Kharg","latitude":"29.2452","longitude":"50.3117"},{"id":"666772583","name_fa":"\u062a\u0627\u06a9\u0633\u062a\u0627\u0646","name_en":"Takestan","latitude":"36.0726","longitude":"49.6937"},{"id":"668711965","name_fa":"\u0634\u0627\u0646\u062f\u06cc\u0632","name_en":"Shandiz","latitude":"36.3959","longitude":"59.2986"},{"id":"679220398","name_fa":"\u0631\u0628\u0627\u0637 \u0633\u0646\u06af","name_en":"Robat Sang","latitude":"35.5461","longitude":"59.1938"},{"id":"681298011","name_fa":"\u06a9\u0627\u0634\u0645\u0631","name_en":"Kashmar","latitude":"35.2447","longitude":"58.4641"},{"id":"681308991","name_fa":"\u062e\u0636\u0631\u06cc \u062f\u0634\u062a \u0628\u06cc\u0627\u0636","name_en":"Khezri Dasht Beyaz","latitude":"34.0217","longitude":"58.8141"},{"id":"681308992","name_fa":"\u0628\u06cc\u062f\u062e\u062a","name_en":"Bidokht","latitude":"34.3463","longitude":"58.7573"},{"id":"689323875","name_fa":"\u0627\u0646\u0627\u0628\u062f","name_en":"Anabad","latitude":"35.2519","longitude":"57.8097"},{"id":"689323994","name_fa":"\u0628\u0631\u062f\u0633\u06a9\u0646","name_en":"Bardaskan","latitude":"35.2611","longitude":"57.9685"},{"id":"689324097","name_fa":"\u062e\u0644\u06cc\u0644 \u0622\u0628\u0627\u062f","name_en":"Khalil Abad","latitude":"35.2523","longitude":"58.2853"},{"id":"689424437","name_fa":"\u0631\u0634\u062a\u062e\u0648\u0627\u0631","name_en":"Roshtkhar","latitude":"34.9751","longitude":"59.6246"},{"id":"689424641","name_fa":"\u0633\u0644\u0627\u0645\u06cc","name_en":"Salami","latitude":"34.7448","longitude":"59.9786"},{"id":"689424695","name_fa":"\u062e\u0648\u0627\u0641","name_en":"Khaf","latitude":"34.5723","longitude":"60.144"},{"id":"689454604","name_fa":"\u0633\u0646\u06af\u0627\u0646","name_en":"Sangan","latitude":"34.3995","longitude":"60.2571"},{"id":"689454657","name_fa":"\u0646\u0634\u062a\u06cc\u0641\u0627\u0646","name_en":"Nashtifan","latitude":"34.4337","longitude":"60.1778"},{"id":"689462984","name_fa":"\u0628\u0627\u062e\u0631\u0632","name_en":"Bakharz","latitude":"34.9942","longitude":"60.3148"},{"id":"689524779","name_fa":"\u0646\u0647\u0628\u0646\u062f\u0627\u0646","name_en":"Nehbandan","latitude":"31.5432","longitude":"60.0349"},{"id":"689524917","name_fa":"\u0633\u0631\u0628\u06cc\u0634\u0647","name_en":"Sarbisheh","latitude":"32.5738","longitude":"59.7958"},{"id":"689542318","name_fa":"\u0627\u0633\u0641\u062f\u0646","name_en":"Esfeden","latitude":"33.6478","longitude":"59.7792"},{"id":"689542346","name_fa":"\u062d\u0627\u062c\u06cc \u0622\u0628\u0627\u062f","name_en":"Hajjiabad","latitude":"33.6039","longitude":"59.9923"},{"id":"690428807","name_fa":"\u062c\u0627\u062c\u0631\u0645","name_en":"Jajrom","latitude":"36.95","longitude":"56.3793"},{"id":"690428856","name_fa":"\u06af\u0631\u0645\u0647","name_en":"Garmeh","latitude":"36.987","longitude":"56.2889"},{"id":"703874790","name_fa":"\u0628\u0631\u0627\u0632\u062c\u0627\u0646","name_en":"Borazjan","latitude":"29.2661","longitude":"51.2121"},{"id":"703874975","name_fa":"\u062f\u0627\u0644\u06a9\u06cc","name_en":"Dalaki","latitude":"29.4307","longitude":"51.2925"},{"id":"704278453","name_fa":"\u0628\u0646\u062f\u0631 \u06af\u0646\u0627\u0648\u0647","name_en":"Bandar Ganaveh","latitude":"29.5818","longitude":"50.5183"},{"id":"704596658","name_fa":"\u0628\u0646\u062f\u0631 \u062f\u06cc\u0644\u0645","name_en":"Bandar Deylam","latitude":"30.0529","longitude":"50.1625"},{"id":"705048454","name_fa":"\u0628\u0646\u062f\u0631\u06af\u0632","name_en":"Bandar-e Gaz","latitude":"36.772","longitude":"53.9481"},{"id":"724197171","name_fa":"\u0645\u0647\u0631\u0627\u0646","name_en":"Mehran","latitude":"33.1237","longitude":"46.1667"},{"id":"724197178","name_fa":"\u0635\u0627\u0644\u062d \u0622\u0628\u0627\u062f","name_en":"Saleh Abad","latitude":"33.4694","longitude":"46.1889"},{"id":"724197204","name_fa":"\u0627\u0631\u06a9\u0648\u0627\u0632","name_en":"Arkvaz","latitude":"33.3847","longitude":"46.5974"},{"id":"724215843","name_fa":"\u0644\u0627\u0644\u062c\u06cc\u0646","name_en":"Lalejin","latitude":"34.9746","longitude":"48.4751"},{"id":"724215847","name_fa":"\u0628\u0647\u0627\u0631","name_en":"Bahar","latitude":"34.9078","longitude":"48.4394"},{"id":"725213029","name_fa":"\u0631\u0627\u0645\u06cc\u0627\u0646","name_en":"Ramian","latitude":"37.015","longitude":"55.1424"},{"id":"725213051","name_fa":"\u06af\u0627\u0644\u06cc\u06a9\u0634","name_en":"Galikash","latitude":"37.2719","longitude":"55.4325"},{"id":"727630143","name_fa":"\u06af\u0644\u0648\u06af\u0627\u0647","name_en":"Galugah","latitude":"36.7284","longitude":"53.8089"},{"id":"729167545","name_fa":"\u06a9\u0644\u0627\u0631\u062f\u0634\u062a","name_en":"Kelardasht","latitude":"36.5056","longitude":"51.1588"},{"id":"729167632","name_fa":"\u0631\u062d\u06cc\u0645 \u0622\u0628\u0627\u062f","name_en":"Rahimabad","latitude":"37.0315","longitude":"50.3264"},{"id":"729167674","name_fa":"\u0635\u0648\u0645\u0639\u0647 \u0633\u0631\u0627","name_en":"Sowme'eh Sara","latitude":"37.3017","longitude":"49.3147"},{"id":"729167711","name_fa":"\u0627\u06cc\u0632\u062f\u0634\u0647\u0631","name_en":"Izadshahr","latitude":"36.5988","longitude":"52.1352"},{"id":"729167774","name_fa":"\u0641\u0631\u06cc\u062f\u0648\u0646\u06a9\u0646\u0627\u0631","name_en":"Fereydunkenar","latitude":"36.6831","longitude":"52.5218"},{"id":"729167816","name_fa":"\u06a9\u0644\u0627\u0686\u0627\u06cc","name_en":"Kala Chay","latitude":"37.0769","longitude":"50.3972"},{"id":"729167822","name_fa":"\u06a9\u06cc\u0627\u06a9\u0644\u0627","name_en":"Kiakola","latitude":"36.5805","longitude":"52.8097"},{"id":"729167828","name_fa":"\u06a9\u062a\u0627\u0644\u0645 \u0648 \u0633\u0627\u062f\u0627\u062a \u0634\u0647\u0631","name_en":"Ketalem and Sadat Shahr","latitude":"36.8906","longitude":"50.6981"},{"id":"729167836","name_fa":"\u062e\u0631\u0645 \u0622\u0628\u0627\u062f","name_en":"Khorramabad","latitude":"36.7814","longitude":"50.8728"},{"id":"729167849","name_fa":"\u0627\u0645\u06cc\u0631\u06a9\u0644\u0627","name_en":"Amirkola","latitude":"36.6002","longitude":"52.6626"},{"id":"729167975","name_fa":"\u0633\u06cc\u0627\u0647\u06a9\u0644","name_en":"Siahkal","latitude":"37.1522","longitude":"49.8716"},{"id":"729168061","name_fa":"\u062a\u0646\u06a9\u0627\u0628\u0646","name_en":"Tonekabon","latitude":"36.8154","longitude":"50.8787"},{"id":"729168093","name_fa":"\u0633\u0631\u062e\u0631\u0648\u062f","name_en":"Sorkhrud","latitude":"36.6713","longitude":"52.4492"},{"id":"729168107","name_fa":"\u0631\u0648\u062f\u0628\u0646\u0647","name_en":"Rudboneh","latitude":"37.2549","longitude":"50.0039"},{"id":"729168184","name_fa":"\u0641\u0648\u0645\u0646","name_en":"Fuman","latitude":"37.2273","longitude":"49.3142"},{"id":"729168197","name_fa":"\u0631\u0627\u0645\u0633\u0631","name_en":"Ramsar","latitude":"36.9226","longitude":"50.6432"},{"id":"729168345","name_fa":"\u0645\u0627\u0633\u0648\u0644\u0647","name_en":"Masouleh","latitude":"37.1551","longitude":"48.99"},{"id":"729168407","name_fa":"\u0648\u0627\u062c\u0627\u0631\u06af\u0627\u0647","name_en":"Vajargah","latitude":"37.0383","longitude":"50.4059"},{"id":"729168422","name_fa":"\u0686\u0627\u0628\u06a9\u0633\u0631","name_en":"Chaboksar","latitude":"36.9743","longitude":"50.5708"},{"id":"732046755","name_fa":"\u06af\u0644\u0628\u0627\u0641","name_en":"Golbaf","latitude":"29.884","longitude":"57.7324"},{"id":"732047429","name_fa":"\u0634\u0647\u062f\u0627\u062f","name_en":"Shahdad","latitude":"30.4196","longitude":"57.7024"},{"id":"747346242","name_fa":"\u0645\u0631\u0632\u062f\u0627\u0631\u0627\u0646","name_en":"Mazdavand","latitude":"36.1557","longitude":"60.5292"},{"id":"772948850","name_fa":"\u0633\u06cc\u062f \u0622\u0628\u0627\u062f","name_en":"SeyedAbad","latitude":"36.7473","longitude":"58.9571"},{"id":"790126834","name_fa":"\u0631\u0627\u0645\u0647\u0631\u0645\u0632","name_en":"Ramhormoz","latitude":"31.278","longitude":"49.602"},{"id":"790126920","name_fa":"\u062c\u0627\u06cc\u0632\u0627\u0646","name_en":"Jayezan","latitude":"30.8752","longitude":"49.8534"},{"id":"790127519","name_fa":"\u0622\u063a\u0627\u062c\u0627\u0631\u06cc","name_en":"Aghajari","latitude":"30.6996","longitude":"49.8285"},{"id":"791254167","name_fa":"\u0647\u0634\u062a\u06af\u0631\u062f","name_en":"Hashtgerd","latitude":"35.9642","longitude":"50.6858"},{"id":"791723493","name_fa":"\u0641\u06cc\u0631\u0648\u0632\u0622\u0628\u0627\u062f","name_en":"Firuzabad","latitude":"28.8456","longitude":"52.5727"},{"id":"792486386","name_fa":"\u0633\u06cc\u0631\u0627\u0641","name_en":"Bandar Siraf","latitude":"27.6649","longitude":"52.348"},{"id":"792528283","name_fa":"\u062c\u0645","name_en":"Jam","latitude":"27.8263","longitude":"52.3264"},{"id":"793489828","name_fa":"\u062a\u0627\u0632\u0647 \u0634\u0647\u0631","name_en":"Tazeh Shahr","latitude":"38.1751","longitude":"44.6915"},{"id":"794158462","name_fa":"\u062e\u0646\u062c","name_en":"Khonj","latitude":"27.8899","longitude":"53.4368"},{"id":"795056587","name_fa":"\u0686\u0627\u067e\u0634\u0644\u0648","name_en":"Chapeshlu","latitude":"37.3515","longitude":"59.0775"},{"id":"796757270","name_fa":"\u0628\u0627\u06cc\u06af","name_en":"Bayg","latitude":"35.3756","longitude":"59.0389"},{"id":"796757274","name_fa":"\u06a9\u062f\u06a9\u0646","name_en":"Kadkan","latitude":"35.5856","longitude":"58.8787"},{"id":"804014875","name_fa":"\u0628\u0647\u0645\u0646","name_en":"Bahman","latitude":"31.1952","longitude":"52.4862"},{"id":"804014883","name_fa":"\u0635\u063a\u0627\u062f","name_en":"Soqad","latitude":"31.1916","longitude":"52.5156"},{"id":"806606327","name_fa":"\u06af\u0686\u0633\u0627\u0631\u0627\u0646","name_en":"Dogonbadan","latitude":"30.357","longitude":"50.7939"},{"id":"806612685","name_fa":"\u0645\u0635\u06cc\u0631\u06cc","name_en":"Masiri","latitude":"30.2433","longitude":"51.5274"},{"id":"806623086","name_fa":"\u0646\u0648\u0631\u0622\u0628\u0627\u062f","name_en":"Nurabad Mamasani","latitude":"30.1154","longitude":"51.523"},{"id":"806633638","name_fa":"\u0642\u0627\u0626\u0645\u06cc\u0647","name_en":"Qaemiyeh","latitude":"29.851","longitude":"51.5819"},{"id":"806637044","name_fa":"\u06a9\u0646\u0627\u0631\u062a\u062e\u062a\u0647","name_en":"Konartakhteh","latitude":"29.5328","longitude":"51.3961"},{"id":"806920354","name_fa":"\u0627\u0644\u0648\u0646\u062f","name_en":"Alvand","latitude":"36.1866","longitude":"50.0641"},{"id":"806942842","name_fa":"\u0627\u0634\u062a\u0647\u0627\u0631\u062f","name_en":"Eshtehard","latitude":"35.7234","longitude":"50.3671"},{"id":"814909332","name_fa":"\u0633\u0639\u0627\u062f\u062a \u0634\u0647\u0631","name_en":"Saadat Shahr","latitude":"30.0798","longitude":"53.1358"},{"id":"814918848","name_fa":"\u0627\u0631\u0633\u0646\u062c\u0627\u0646","name_en":"Arsanjan","latitude":"29.915","longitude":"53.309"},{"id":"814924038","name_fa":"\u0622\u0628\u0627\u062f\u0647 \u0637\u0634\u06a9","name_en":"Abadeh Tashk","latitude":"29.8078","longitude":"53.7269"},{"id":"818944615","name_fa":"\u06a9\u0627\u0632\u0631\u0648\u0646","name_en":"Kazerun","latitude":"29.6203","longitude":"51.6521"},{"id":"818955575","name_fa":"\u0648\u0627\u0644\u0627\u0634\u0647\u0631","name_en":"Baladeh","latitude":"29.2869","longitude":"51.9394"},{"id":"818961986","name_fa":"\u0641\u0631\u0627\u0634\u0628\u0646\u062f","name_en":"Farashband","latitude":"28.8554","longitude":"52.0946"},{"id":"819610755","name_fa":"\u0645\u06cc\u0646\u0648\u0634\u0647\u0631","name_en":"Minooshahr","latitude":"30.3534","longitude":"48.217"},{"id":"819610765","name_fa":"\u0633\u0648\u0633\u0646\u06af\u0631\u062f","name_en":"Susangerd","latitude":"31.5566","longitude":"48.1881"},{"id":"819610782","name_fa":"\u0632\u0627\u063a\u0647","name_en":"Zagheh","latitude":"33.4999","longitude":"48.706"},{"id":"819610786","name_fa":"\u0634\u0647\u0631 \u0627\u0645\u0627\u0645","name_en":"Shahr-e-Emam","latitude":"32.228","longitude":"48.4247"},{"id":"819610800","name_fa":"\u0627\u0644\u06cc\u06af\u0648\u062f\u0631\u0632","name_en":"Aligudarz","latitude":"33.4035","longitude":"49.6922"},{"id":"819610804","name_fa":"\u06af\u06cc\u0644\u0627\u0646 \u063a\u0631\u0628","name_en":"Gilan-e Gharb","latitude":"34.1411","longitude":"45.9141"},{"id":"819610816","name_fa":"\u06a9\u0631\u0646\u062f \u063a\u0631\u0628","name_en":"Kerend-e Gharb","latitude":"34.2828","longitude":"46.2437"},{"id":"819610827","name_fa":"\u0628\u0646\u062f\u0631 \u0634\u0631\u0641\u062e\u0627\u0646\u0647","name_en":"Sharafkhaneh","latitude":"38.1787","longitude":"45.4893"},{"id":"819610830","name_fa":"\u0634\u0627\u062f\u06af\u0627\u0646","name_en":"Shadegan","latitude":"30.6493","longitude":"48.669"},{"id":"819610833","name_fa":"\u0642\u0635\u0631 \u0634\u06cc\u0631\u06cc\u0646","name_en":"Qasr-e Shirin","latitude":"34.5156","longitude":"45.58"},{"id":"819610841","name_fa":"\u0647\u0641\u062a\u06a9\u0644","name_en":"Haftkel","latitude":"31.4463","longitude":"49.5289"},{"id":"819610844","name_fa":"\u0634\u0627\u0647\u06cc\u0646 \u062f\u0698","name_en":"Shahindezh","latitude":"36.6784","longitude":"46.5657"},{"id":"819610852","name_fa":"\u062e\u0627\u0645\u0646\u0647","name_en":"Khamaneh","latitude":"38.1935","longitude":"45.6298"},{"id":"819610854","name_fa":"\u0647\u0648\u06cc\u0632\u0647","name_en":"Hoveyzeh","latitude":"31.4628","longitude":"48.0756"},{"id":"819610866","name_fa":"\u0628\u0646\u0627\u0628 \u062c\u062f\u06cc\u062f","name_en":"Bonab-e-Jadid","latitude":"38.4283","longitude":"45.9087"},{"id":"819610871","name_fa":"\u0635\u062d\u0646\u0647","name_en":"Sahneh","latitude":"34.4812","longitude":"47.6936"},{"id":"819610872","name_fa":"\u062d\u0645\u06cc\u062f\u06cc\u0647","name_en":"Hamidieh","latitude":"31.4808","longitude":"48.4354"},{"id":"819610883","name_fa":"\u0627\u0644\u0634\u062a\u0631","name_en":"Aleshtar","latitude":"33.8628","longitude":"48.262"},{"id":"819610896","name_fa":"\u067e\u0644 \u062f\u062e\u062a\u0631","name_en":"Pol Dokhtar","latitude":"33.1524","longitude":"47.7118"},{"id":"819610900","name_fa":"\u0628\u06cc\u0633\u062a\u0648\u0646","name_en":"Bisotun","latitude":"34.3996","longitude":"47.4448"},{"id":"819610915","name_fa":"\u0628\u0633\u062a\u0627\u0646\u200c\u0622\u0628\u0627\u062f","name_en":"Bostan","latitude":"31.7215","longitude":"47.9867"},{"id":"819610926","name_fa":"\u0631\u0628\u0627\u0637","name_en":"Robat","latitude":"34.2687","longitude":"46.804"},{"id":"819610933","name_fa":"\u0633\u0648\u0645\u0627\u0631","name_en":"Sumar","latitude":"33.8862","longitude":"45.6388"},{"id":"819610937","name_fa":"\u0645\u0631\u06cc\u0648\u0627\u0646","name_en":"Marivan","latitude":"35.5219","longitude":"46.1759"},{"id":"819610941","name_fa":"\u06a9\u0648\u0647\u062f\u0634\u062a","name_en":"Kuhdasht","latitude":"33.5338","longitude":"47.6079"},{"id":"819610948","name_fa":"\u0627\u0631\u0648\u0646\u062f\u06a9\u0646\u0627\u0631","name_en":"Arwandkenar","latitude":"29.9843","longitude":"48.511"},{"id":"819610949","name_fa":"\u0631\u0641\u06cc\u0639","name_en":"Rafi","latitude":"31.5962","longitude":"47.8919"},{"id":"819610953","name_fa":"\u0634\u0628\u0633\u062a\u0631","name_en":"Shabistar","latitude":"38.1784","longitude":"45.7002"},{"id":"820185494","name_fa":"\u062e\u0648\u0631\u0645\u0648\u062c","name_en":"Khormoj","latitude":"28.6543","longitude":"51.3759"},{"id":"820185524","name_fa":"\u06a9\u0627\u06a9\u06cc","name_en":"Kaki","latitude":"28.3366","longitude":"51.5239"},{"id":"820186803","name_fa":"\u0628\u0646\u062f\u0631 \u062f\u06cc\u0631","name_en":"Bandar Dayyer","latitude":"27.8412","longitude":"51.9372"},{"id":"820252454","name_fa":"\u0628\u06cc\u062f\u0633\u062a\u0627\u0646","name_en":"Bidestan","latitude":"36.23","longitude":"50.1234"},{"id":"820252456","name_fa":"\u0635\u0627\u0644\u062d \u0622\u0628\u0627\u062f","name_en":"Salehabad","latitude":"34.9216","longitude":"48.3431"},{"id":"820252465","name_fa":"\u0633\u0631\u06a9\u0627\u0646","name_en":"Serkan","latitude":"34.6022","longitude":"48.4509"},{"id":"820252470","name_fa":"\u062a\u0648\u06cc\u0633\u0631\u06a9\u0627\u0646","name_en":"Tuyserkan","latitude":"34.5479","longitude":"48.4478"},{"id":"820252471","name_fa":"\u0633\u0627\u0645\u0646","name_en":"Samen","latitude":"34.209","longitude":"48.7046"},{"id":"820252478","name_fa":"\u0631\u0632\u0646","name_en":"Razan","latitude":"35.3884","longitude":"49.0345"},{"id":"820252479","name_fa":"\u0627\u0628\u0647\u0631","name_en":"Abhar","latitude":"36.1454","longitude":"49.213"},{"id":"820252480","name_fa":"\u06af\u0631\u0645\u0627\u0628","name_en":"Garmab","latitude":"35.8479","longitude":"48.1962"},{"id":"820252486","name_fa":"\u0647\u06cc\u062f\u062c","name_en":"Hidaj","latitude":"36.2521","longitude":"49.1303"},{"id":"820252492","name_fa":"\u0632\u0631\u06cc\u0646 \u0622\u0628\u0627\u062f","name_en":"Zarrinabad","latitude":"36.4285","longitude":"48.2816"},{"id":"820252499","name_fa":"\u062e\u0631\u0645\u062f\u0634\u062a","name_en":"Khorramdasht","latitude":"35.9295","longitude":"49.5117"},{"id":"820252504","name_fa":"\u0622\u0648\u062c","name_en":"Avaj","latitude":"35.5787","longitude":"49.2236"},{"id":"820252512","name_fa":"\u062f\u0646\u062f\u06cc","name_en":"Dandi","latitude":"36.5542","longitude":"47.6208"},{"id":"820252518","name_fa":"\u0646\u0647\u0627\u0648\u0646\u062f","name_en":"Nahavand","latitude":"34.1897","longitude":"48.3716"},{"id":"820252525","name_fa":"\u0641\u06cc\u0631\u0648\u0632\u0627\u0646","name_en":"Firoozan","latitude":"34.3605","longitude":"48.1138"},{"id":"820252530","name_fa":"\u0635\u0627\u06cc\u06cc\u0646 \u0642\u0644\u0639\u0647","name_en":"Saeen Qaleh","latitude":"36.3038","longitude":"49.0728"},{"id":"820252534","name_fa":"\u0632\u0631\u06cc\u0646 \u0631\u0648\u062f","name_en":"Zarrin Rud","latitude":"35.7565","longitude":"48.4812"},{"id":"820252538","name_fa":"\u062e\u0631\u0645\u062f\u0631\u0647","name_en":"Khorramdarreh","latitude":"36.2035","longitude":"49.1882"},{"id":"820252544","name_fa":"\u0632\u0646\u06af\u0646\u0647","name_en":"Zangeneh","latitude":"34.1553","longitude":"49.0103"},{"id":"820309170","name_fa":"\u0628\u0632\u0645\u0627\u0646","name_en":"Bazman","latitude":"27.8505","longitude":"60.1736"},{"id":"820309178","name_fa":"\u0633\u0631\u0628\u0627\u0632","name_en":"Sarbaz","latitude":"26.6321","longitude":"61.257"},{"id":"820309185","name_fa":"\u06af\u0644\u0632\u0627\u0631","name_en":"Golzar","latitude":"29.7111","longitude":"57.0373"},{"id":"820309189","name_fa":"\u0641\u0627\u0631\u06cc\u0627\u0628","name_en":"Faryab","latitude":"28.0958","longitude":"57.2287"},{"id":"820309193","name_fa":"\u0646\u062c\u0641 \u0634\u0647\u0631","name_en":"Najafshahr","latitude":"29.3897","longitude":"55.7203"},{"id":"820309205","name_fa":"\u0627\u0633\u067e\u06a9\u0647","name_en":"Espakeh","latitude":"26.8384","longitude":"60.1726"},{"id":"820309211","name_fa":"\u0628\u0631\u0648\u0627\u062a","name_en":"Baravat","latitude":"29.0662","longitude":"58.4045"},{"id":"820309219","name_fa":"\u0633\u0631\u0627\u0648\u0627\u0646","name_en":"Saravan","latitude":"27.3652","longitude":"62.3391"},{"id":"820309227","name_fa":"\u0646\u06cc\u06a9\u200c\u0634\u0647\u0631","name_en":"Nik Shahr","latitude":"26.226","longitude":"60.2162"},{"id":"820309230","name_fa":"\u0645\u062d\u0645\u062f\u0622\u0628\u0627\u062f","name_en":"Mohammadabad","latitude":"30.8861","longitude":"61.4636"},{"id":"820309235","name_fa":"\u0632\u06cc\u062f\u0622\u0628\u0627\u062f","name_en":"Zeidabad","latitude":"29.6004","longitude":"55.5368"},{"id":"820309249","name_fa":"\u0628\u0646\u062c\u0627\u0631","name_en":"Bonjar","latitude":"31.0429","longitude":"61.5683"},{"id":"820309254","name_fa":"\u0646\u0631\u0645\u0627\u0634\u06cc\u0631","name_en":"Narmashir","latitude":"28.9514","longitude":"58.6963"},{"id":"820309260","name_fa":"\u0633\u0648\u0631\u0627\u0646","name_en":"Suran","latitude":"27.2872","longitude":"61.9997"},{"id":"820309271","name_fa":"\u062f\u0648\u0633\u062a\u200c\u0645\u062d\u0645\u062f","name_en":"Dust Mohammad","latitude":"31.1428","longitude":"61.791"},{"id":"820309272","name_fa":"\u0627\u062f\u06cc\u0645\u06cc","name_en":"Adimi","latitude":"31.116","longitude":"61.4083"},{"id":"820309285","name_fa":"\u067e\u06cc\u0634\u06cc\u0646","name_en":"Pishin","latitude":"26.0802","longitude":"61.7516"},{"id":"820309292","name_fa":"\u0646\u0638\u0627\u0645 \u0634\u0647\u0631","name_en":"NezamShahr","latitude":"28.9163","longitude":"58.5497"},{"id":"820316670","name_fa":"\u0645\u062d\u06cc \u0622\u0628\u0627\u062f","name_en":"Mohiabad","latitude":"30.0838","longitude":"57.1622"},{"id":"820316673","name_fa":"\u062c\u0648\u067e\u0627\u0631","name_en":"Jupar","latitude":"30.0603","longitude":"57.1108"},{"id":"820345099","name_fa":"\u0645\u0648\u062f","name_en":"Mud","latitude":"32.7064","longitude":"59.5244"},{"id":"820345109","name_fa":"\u062e\u0648\u0633\u0641","name_en":"Khusf","latitude":"32.7797","longitude":"58.8928"},{"id":"820345118","name_fa":"\u0645\u0633 \u0633\u0631\u0686\u0634\u0645\u0647","name_en":"Mes-e Sarcheshmeh","latitude":"29.997","longitude":"55.7961"},{"id":"820345120","name_fa":"\u0627\u0633\u062f\u06cc\u0647","name_en":"Asadiyeh","latitude":"32.9157","longitude":"60.021"},{"id":"820345131","name_fa":"\u0628\u0647\u0631\u0645\u0627\u0646","name_en":"Bahreman","latitude":"30.9035","longitude":"55.7289"},{"id":"820345132","name_fa":"\u0633\u0647 \u0642\u0644\u0639\u0647","name_en":"Se Qaleh","latitude":"33.6657","longitude":"58.3976"},{"id":"820345140","name_fa":"\u06a9\u06cc\u0627\u0646\u0634\u0647\u0631","name_en":"Kianshahr","latitude":"31.1555","longitude":"56.3803"},{"id":"820345142","name_fa":"\u0622\u06cc\u0633\u06a9","name_en":"Ayask","latitude":"33.8863","longitude":"58.3811"},{"id":"820345149","name_fa":"\u0634\u0648\u0633\u0641","name_en":"Shusef","latitude":"31.8035","longitude":"60.0099"},{"id":"820374305","name_fa":"\u0627\u0631\u062f\u06a9\u0627\u0646","name_en":"Ardakan","latitude":"30.2624","longitude":"51.9837"},{"id":"820374319","name_fa":"\u062f\u0627\u0631\u06cc\u0627\u0646","name_en":"Darian","latitude":"29.5601","longitude":"52.9223"},{"id":"820417169","name_fa":"\u0628\u0646","name_en":"Ben","latitude":"32.5423","longitude":"50.7453"},{"id":"820417173","name_fa":"\u0644\u0631\u062f\u06af\u0627\u0646","name_en":"Lordegan","latitude":"31.5135","longitude":"50.83"},{"id":"820417174","name_fa":"\u0645\u0628\u0627\u0631\u06a9\u0647","name_en":"Mobarakeh","latitude":"32.3424","longitude":"51.5047"},{"id":"820417182","name_fa":"\u0633\u0627\u0645\u0627\u0646","name_en":"Saman","latitude":"32.4529","longitude":"50.9104"},{"id":"820417183","name_fa":"\u06a9\u0631\u06a9\u0648\u0646\u062f","name_en":"Karkevand","latitude":"32.3461","longitude":"51.4474"},{"id":"820417186","name_fa":"\u0686\u0644\u06af\u0631\u062f","name_en":"Chelgerd","latitude":"32.4683","longitude":"50.1222"},{"id":"820417196","name_fa":"\u0641\u0631\u0627\u062f\u0646\u0628\u0647","name_en":"Faradanbeh","latitude":"32.008","longitude":"51.2177"},{"id":"820417200","name_fa":"\u0627\u0631\u062f\u0644","name_en":"Ardal","latitude":"31.9977","longitude":"50.6609"},{"id":"820417202","name_fa":"\u0641\u0627\u0631\u0633\u0627\u0646","name_en":"Farsan","latitude":"32.2549","longitude":"50.5625"},{"id":"820417203","name_fa":"\u0628\u0644\u062f\u0627\u062c\u06cc","name_en":"Boldaji","latitude":"31.9366","longitude":"51.0513"},{"id":"820856418","name_fa":"\u062e\u0636\u0631\u0622\u0628\u0627\u062f","name_en":"Khezrababd","latitude":"31.866","longitude":"53.9524"},{"id":"820856419","name_fa":"\u0646\u06cc\u0631","name_en":"Nir","latitude":"31.4846","longitude":"54.126"},{"id":"820856421","name_fa":"\u0646\u062f\u0648\u0634\u0646","name_en":"Nadushan","latitude":"32.0282","longitude":"53.5494"},{"id":"820856427","name_fa":"\u0627\u062d\u0645\u062f\u0622\u0628\u0627\u062f","name_en":"Ahmadabad","latitude":"32.3577","longitude":"53.9922"},{"id":"820856430","name_fa":"\u0645\u0647\u0631\u06cc\u0632","name_en":"Mehriz","latitude":"31.5842","longitude":"54.4446"},{"id":"820856435","name_fa":"\u0628\u0647\u0627\u0628\u0627\u062f","name_en":"Behabad","latitude":"31.8768","longitude":"56.0191"},{"id":"820856439","name_fa":"\u0647\u0631\u0627\u062a","name_en":"Harat","latitude":"30.0586","longitude":"54.3674"},{"id":"820856444","name_fa":"\u062a\u0641\u062a","name_en":"Taft","latitude":"31.752","longitude":"54.2174"},{"id":"820856450","name_fa":"\u0645\u0631\u0648\u0633\u062a","name_en":"Marvast","latitude":"30.4774","longitude":"54.2126"},{"id":"820856452","name_fa":"\u0645\u0647\u0631\u062f\u0634\u062a","name_en":"Mehrdasht","latitude":"31.0245","longitude":"53.3488"},{"id":"820873577","name_fa":"\u0628\u0631\u0632\u06a9","name_en":"Barzok","latitude":"33.7828","longitude":"51.2253"},{"id":"820873578","name_fa":"\u0632\u0648\u0627\u0631\u0647","name_en":"Zavareh","latitude":"33.4469","longitude":"52.4949"},{"id":"820873579","name_fa":"\u0645\u0647\u0627\u0628\u0627\u062f","name_en":"Mahabad","latitude":"33.5252","longitude":"52.2133"},{"id":"820873580","name_fa":"\u0686\u0631\u0645\u0647\u06cc\u0646","name_en":"Chermahin","latitude":"32.3334","longitude":"51.1898"},{"id":"820873581","name_fa":"\u062f\u06cc\u0632\u06cc\u0686\u0647","name_en":"Dizicheh","latitude":"32.3829","longitude":"51.5128"},{"id":"820873582","name_fa":"\u0648\u0631\u0646\u0627\u0645\u062e\u0648\u0627\u0633\u062a","name_en":"Varnamkhast","latitude":"32.3589","longitude":"51.3788"},{"id":"820873583","name_fa":"\u062f\u0647\u0642","name_en":"Dehagh","latitude":"33.105","longitude":"50.963"},{"id":"820873584","name_fa":"\u0686\u0645\u06af\u0631\u062f\u0627\u0646","name_en":"Chamgordan","latitude":"32.3931","longitude":"51.3389"},{"id":"820873586","name_fa":"\u062e\u0627\u0644\u062f\u0622\u0628\u0627\u062f","name_en":"Khaledabad","latitude":"33.6998","longitude":"51.9883"},{"id":"820873589","name_fa":"\u0639\u0644\u0648\u06cc\u062c\u0647","name_en":"Alavijeh","latitude":"33.0561","longitude":"51.0846"},{"id":"820873590","name_fa":"\u0628\u0627\u063a \u0628\u0647\u0627\u062f\u0631\u0627\u0646","name_en":"Baq Bahadoran","latitude":"32.3762","longitude":"51.189"},{"id":"820873591","name_fa":"\u0639\u0633\u06af\u0631\u0627\u0646","name_en":"Asgaran","latitude":"32.8646","longitude":"50.8517"},{"id":"820873593","name_fa":"\u0642\u0645\u0635\u0631","name_en":"Qamsar","latitude":"33.7537","longitude":"51.4326"},{"id":"820873594","name_fa":"\u0633\u062f\u0647 \u0644\u0646\u062c\u0627\u0646","name_en":"Sedeh Lanjan","latitude":"32.3784","longitude":"51.3149"},{"id":"820873595","name_fa":"\u0641\u0648\u0644\u0627\u062f\u0634\u0647\u0631","name_en":"Fuladshahr","latitude":"32.4835","longitude":"51.4173"},{"id":"820885051","name_fa":"\u0641\u0644\u0627\u0648\u0631\u062c\u0627\u0646","name_en":"Falavarjan","latitude":"32.5577","longitude":"51.5079"},{"id":"820885057","name_fa":"\u0642\u0647\u062f\u0631\u06cc\u062c\u0627\u0646","name_en":"Qahderijan","latitude":"32.5771","longitude":"51.4539"},{"id":"820885064","name_fa":"\u0645\u0646\u0638\u0631\u06cc\u0647","name_en":"Manzarieh","latitude":"31.9467","longitude":"51.8715"},{"id":"820885069","name_fa":"\u0645\u062d\u0645\u062f\u0622\u0628\u0627\u062f","name_en":"Mohammadabad","latitude":"32.3251","longitude":"52.111"},{"id":"820885073","name_fa":"\u067e\u06cc\u0631\u0628\u06a9\u0631\u0627\u0646","name_en":"Pir Bakran","latitude":"32.4683","longitude":"51.5596"},{"id":"820885075","name_fa":"\u062a\u06cc\u0631\u0627\u0646","name_en":"Tiran","latitude":"32.7039","longitude":"51.1531"},{"id":"820885076","name_fa":"\u0628\u0647\u0627\u0631\u0633\u062a\u0627\u0646","name_en":"Baharestan","latitude":"32.4859","longitude":"51.7785"},{"id":"820885083","name_fa":"\u062e\u0648\u0631\u0632\u0648\u0642","name_en":"Unknown","latitude":"32.7778","longitude":"51.6488"},{"id":"820885084","name_fa":"\u06af\u0644\u062f\u0634\u062a","name_en":"Goldasht","latitude":"32.6248","longitude":"51.4392"},{"id":"820885085","name_fa":"\u062d\u0628\u06cc\u0628 \u0622\u0628\u0627\u062f","name_en":"Habibabad","latitude":"32.8277","longitude":"51.7757"},{"id":"820885088","name_fa":"\u062f\u0648\u0644\u062a \u0622\u0628\u0627\u062f","name_en":"Dolatabad","latitude":"32.8037","longitude":"51.6963"},{"id":"820885097","name_fa":"\u06a9\u0644\u06cc\u0634\u0627\u062f \u0648 \u0633\u0648\u062f\u0631\u062c\u0627\u0646","name_en":"Kelishad and Sudarjan","latitude":"32.5477","longitude":"51.5329"},{"id":"820885101","name_fa":"\u062f\u0633\u062a\u06af\u0631\u062f","name_en":"Dastgerd","latitude":"32.8016","longitude":"51.664"},{"id":"820885106","name_fa":"\u062f\u0647\u0627\u0642\u0627\u0646","name_en":"Dehaqan","latitude":"31.9367","longitude":"51.6471"},{"id":"820885117","name_fa":"\u0627\u0628\u0631\u06cc\u0634\u0645","name_en":"Abrisham","latitude":"32.5698","longitude":"51.5713"},{"id":"820885126","name_fa":"\u06af\u0632 \u0628\u0631\u062e\u0648\u0627\u0631","name_en":"Gaz Borkhar","latitude":"32.8062","longitude":"51.6168"},{"id":"820885130","name_fa":"\u06a9\u0648\u0634\u06a9","name_en":"Kushk","latitude":"32.6392","longitude":"51.5004"},{"id":"820885139","name_fa":"\u0646\u0635\u0631\u0622\u0628\u0627\u062f","name_en":"Nasrabad","latitude":"32.2792","longitude":"52.06"},{"id":"820983148","name_fa":"\u0646\u06cc\u06a9 \u0622\u0628\u0627\u062f","name_en":"Nikabad","latitude":"32.3042","longitude":"52.2032"},{"id":"820983149","name_fa":"\u0647\u0631\u0646\u062f","name_en":"Harand","latitude":"32.5626","longitude":"52.4355"},{"id":"820983150","name_fa":"\u0633\u062c\u0632\u06cc","name_en":"Sejzi","latitude":"32.6901","longitude":"52.1254"},{"id":"820983151","name_fa":"\u0648\u0631\u0632\u0646\u0647","name_en":"Varzaneh","latitude":"32.4204","longitude":"52.6487"},{"id":"821009013","name_fa":"\u0634\u0627\u0632\u0646\u062f","name_en":"Shazand","latitude":"33.9293","longitude":"49.407"},{"id":"821009025","name_fa":"\u06af\u0648\u06af\u062f","name_en":"Guged","latitude":"33.4756","longitude":"50.3555"},{"id":"821009031","name_fa":"\u062a\u0641\u0631\u0634","name_en":"Tafresh","latitude":"34.6927","longitude":"50.0147"},{"id":"821009042","name_fa":"\u0647\u0646\u062f\u0648\u062f\u0631","name_en":"Hendodar","latitude":"33.7804","longitude":"49.2308"},{"id":"821009047","name_fa":"\u062d\u0633\u0646 \u0622\u0628\u0627\u062f","name_en":"Hasanabad","latitude":"32.1403","longitude":"52.6279"},{"id":"821009063","name_fa":"\u06af\u0644\u067e\u0627\u06cc\u06af\u0627\u0646","name_en":"Golpayegan","latitude":"33.4565","longitude":"50.2883"},{"id":"821009075","name_fa":"\u0622\u0634\u062a\u06cc\u0627\u0646","name_en":"Ashtian","latitude":"34.5217","longitude":"50.0019"},{"id":"821009081","name_fa":"\u0622\u0633\u062a\u0627\u0646\u0647","name_en":"Astaneh","latitude":"33.8856","longitude":"49.3522"},{"id":"821009094","name_fa":"\u06a9\u0648\u0647\u067e\u0627\u06cc\u0647","name_en":"Koohpayeh","latitude":"32.7138","longitude":"52.4405"},{"id":"821009102","name_fa":"\u0627\u0698\u06cc\u0647","name_en":"Ezhieh","latitude":"32.4401","longitude":"52.3789"},{"id":"821009117","name_fa":"\u062e\u0648\u0627\u0646\u0633\u0627\u0631","name_en":"Khansar","latitude":"33.2269","longitude":"50.3146"},{"id":"821045212","name_fa":"\u062f\u0633\u062a\u062c\u0631\u062f","name_en":"Dastjerd","latitude":"34.5504","longitude":"50.2473"},{"id":"821045213","name_fa":"\u062e\u0646\u062f\u0627\u0628","name_en":"Khondab","latitude":"34.3933","longitude":"49.184"},{"id":"821045214","name_fa":"\u0645\u0623\u0645\u0648\u0646\u06cc\u0647","name_en":"Ma'muniyeh","latitude":"35.3011","longitude":"50.5074"},{"id":"821045215","name_fa":"\u06a9\u0647\u06a9","name_en":"Kahak","latitude":"34.393","longitude":"50.8648"},{"id":"821045216","name_fa":"\u0641\u0631\u0645\u0647\u06cc\u0646","name_en":"Farmahin","latitude":"34.5044","longitude":"49.6842"},{"id":"821045217","name_fa":"\u0642\u0648\u0631\u0686\u06cc \u0628\u0627\u0634\u06cc","name_en":"Qurchbashi","latitude":"33.6749","longitude":"49.876"},{"id":"821045220","name_fa":"\u0632\u0627\u0648\u06cc\u0647","name_en":"Zavieh","latitude":"35.383","longitude":"50.5644"},{"id":"821045221","name_fa":"\u06a9\u0645\u06cc\u062c\u0627\u0646","name_en":"Komijan","latitude":"34.7208","longitude":"49.322"},{"id":"821045223","name_fa":"\u062f\u0627\u0648\u0648\u062f\u0622\u0628\u0627\u062f","name_en":"Davudabad","latitude":"34.2922","longitude":"49.8553"},{"id":"821096685","name_fa":"\u067e\u0631\u0646\u062f\u06a9","name_en":"Parandak","latitude":"35.3617","longitude":"50.6796"},{"id":"821096690","name_fa":"\u0634\u0647\u0631 \u0631\u06cc","name_en":"Rey","latitude":"35.599","longitude":"51.4358"},{"id":"821096700","name_fa":"\u0644\u0648\u0627\u0633\u0627\u0646","name_en":"Lavasan","latitude":"35.8205","longitude":"51.6321"},{"id":"821096703","name_fa":"\u0642\u0646\u0648\u0627\u062a","name_en":"Qanavat","latitude":"34.6137","longitude":"51.0246"},{"id":"821096717","name_fa":"\u067e\u0631\u062f\u06cc\u0633","name_en":"Pardis","latitude":"35.7411","longitude":"51.8155"},{"id":"821096745","name_fa":"\u06a9\u0647\u0631\u06cc\u0632\u06a9","name_en":"Kahrizak","latitude":"35.5173","longitude":"51.3619"},{"id":"821096751","name_fa":"\u0628\u0627\u0642\u0631\u0634\u0647\u0631","name_en":"Baqershahr","latitude":"35.5338","longitude":"51.4054"},{"id":"821096755","name_fa":"\u0631\u0628\u0627\u0637 \u06a9\u0631\u06cc\u0645","name_en":"Robat Karim","latitude":"35.4806","longitude":"51.0782"},{"id":"821096768","name_fa":"\u0645\u0647\u0633\u062a\u0627\u0646","name_en":"Mehestan","latitude":"35.9953","longitude":"50.7268"},{"id":"821825746","name_fa":"\u0686\u062a\u0631\u0648\u062f","name_en":"Chatroud","latitude":"30.6012","longitude":"56.9088"},{"id":"821825752","name_fa":"\u06a9\u0627\u0638\u0645 \u0622\u0628\u0627\u062f","name_en":"Kazemabad","latitude":"30.5674","longitude":"56.8441"},{"id":"831526650","name_fa":"\u0633\u0646\u0642\u0631","name_en":"Sonqor","latitude":"34.7832","longitude":"47.5988"},{"id":"831542471","name_fa":"\u0633\u0631\u06cc\u0634 \u0622\u0628\u0627\u062f","name_en":"Serishabad","latitude":"35.2478","longitude":"47.7789"},{"id":"831561999","name_fa":"\u062f\u06cc\u0648\u0627\u0646\u062f\u0631\u0647","name_en":"Divandarreh","latitude":"35.916","longitude":"47.0193"},{"id":"831794646","name_fa":"\u0645\u062d\u0645\u062f\u06cc\u0627\u0631","name_en":"Mohammadyar","latitude":"36.9842","longitude":"45.5168"},{"id":"832423725","name_fa":"\u0642\u0648\u0634\u0686\u06cc","name_en":"Qushchi","latitude":"37.993","longitude":"45.0371"},{"id":"832431037","name_fa":"\u062a\u0633\u0648\u062c","name_en":"Tasuj","latitude":"38.3169","longitude":"45.359"},{"id":"832431618","name_fa":"\u0634\u0646\u062f\u0622\u0628\u0627\u062f","name_en":"Shendabad","latitude":"38.1414","longitude":"45.6299"},{"id":"832431703","name_fa":"\u0648\u0627\u06cc\u0642\u0627\u0646","name_en":"Vayqan","latitude":"38.1305","longitude":"45.7129"},{"id":"832440505","name_fa":"\u0647\u0648\u0631\u0627\u0646\u062f","name_en":"Hurand","latitude":"38.8605","longitude":"47.3683"},{"id":"832452957","name_fa":"\u0628\u06cc\u0644\u0647 \u0633\u0648\u0627\u0631","name_en":"Bilasuvar","latitude":"39.3779","longitude":"48.35"},{"id":"832464380","name_fa":"\u06af\u0631\u0645\u06cc","name_en":"Germi","latitude":"39.0292","longitude":"48.08"},{"id":"832464815","name_fa":"\u0645\u0634\u06af\u06cc\u0646 \u0634\u0647\u0631","name_en":"Meshginshahr","latitude":"38.3979","longitude":"47.6765"},{"id":"833694432","name_fa":"\u0627\u0633\u06a9\u0648","name_en":"Osku","latitude":"37.9161","longitude":"46.1245"},{"id":"833695103","name_fa":"\u0627\u06cc\u0644\u062e\u0686\u06cc","name_en":"Ilkhchi","latitude":"37.9389","longitude":"45.98"},{"id":"833700316","name_fa":"\u0645\u0645\u0642\u0627\u0646","name_en":"Mamqan","latitude":"37.8443","longitude":"45.973"},{"id":"833701024","name_fa":"\u06af\u0648\u06af\u0627\u0646","name_en":"Gugan","latitude":"37.7818","longitude":"45.9038"},{"id":"833704722","name_fa":"\u0639\u062c\u0628\u200c \u0634\u06cc\u0631","name_en":"Ajab Shir","latitude":"37.4771","longitude":"45.8937"},{"id":"833708349","name_fa":"\u0645\u0644\u06a9\u0627\u0646","name_en":"Malekan","latitude":"37.1432","longitude":"46.1056"},{"id":"835139171","name_fa":"\u06a9\u0646\u062f\u0631","name_en":"Kondor","latitude":"35.2116","longitude":"58.1508"},{"id":"835139172","name_fa":"\u0631\u0636\u0648\u06cc\u0647","name_en":"Razaviyeh","latitude":"36.2065","longitude":"59.7698"},{"id":"835139180","name_fa":"\u062c\u0646\u06af\u0644","name_en":"Jangal","latitude":"34.7033","longitude":"59.2228"},{"id":"835139183","name_fa":"\u06cc\u0648\u0646\u0633\u06cc","name_en":"Yoonesi","latitude":"34.8055","longitude":"58.4373"},{"id":"835139184","name_fa":"\u062f\u0648\u0644\u062a \u0622\u0628\u0627\u062f","name_en":"Dowlatabad","latitude":"35.2822","longitude":"59.5197"},{"id":"835139189","name_fa":"\u0642\u062f\u0645\u06af\u0627\u0647","name_en":"Ghadamgah","latitude":"36.1063","longitude":"59.0597"},{"id":"835139191","name_fa":"\u062c\u063a\u062a\u0627\u06cc","name_en":"Joghatay","latitude":"36.6388","longitude":"57.0742"},{"id":"835139193","name_fa":"\u0646\u06cc\u0644 \u0634\u0647\u0631","name_en":"Nilshahr","latitude":"35.1225","longitude":"60.7736"},{"id":"835139196","name_fa":"\u0646\u0635\u0631\u0622\u0628\u0627\u062f","name_en":"Nasrabad","latitude":"35.4183","longitude":"60.318"},{"id":"835139199","name_fa":"\u0631\u06cc\u0648\u0634","name_en":"Rivash","latitude":"35.4752","longitude":"58.4587"},{"id":"835139205","name_fa":"\u0641\u0631\u0647\u0627\u062f\u06af\u0631\u062f","name_en":"Farhad Gerd","latitude":"35.7665","longitude":"59.7345"},{"id":"835139206","name_fa":"\u0646\u0642\u0627\u0628","name_en":"Neqab","latitude":"36.7105","longitude":"57.4087"},{"id":"835139207","name_fa":"\u0645\u0634\u0647\u062f \u0631\u06cc\u0632\u0647","name_en":"Mashhad Rizeh","latitude":"34.7951","longitude":"60.507"},{"id":"835139212","name_fa":"\u0635\u0627\u0644\u062d \u0622\u0628\u0627\u062f","name_en":"Salehabad","latitude":"35.6872","longitude":"61.0943"},{"id":"835139214","name_fa":"\u064e\u0634\u0647\u0631\u0632\u0648","name_en":"Zavin","latitude":"36.7488","longitude":"59.9338"},{"id":"835139217","name_fa":"\u0645\u0644\u06a9 \u0622\u0628\u0627\u062f","name_en":"Malekabad","latitude":"35.9991","longitude":"59.5918"},{"id":"835139223","name_fa":"\u0639\u0634\u0642 \u0622\u0628\u0627\u062f","name_en":"Eshqabad","latitude":"36.0434","longitude":"58.683"},{"id":"835139225","name_fa":"\u0634\u0634\u062a\u0645\u062f","name_en":"Sheshtamad","latitude":"35.9586","longitude":"57.7668"},{"id":"835139229","name_fa":"\u0633\u0641\u06cc\u062f \u0633\u0646\u06af","name_en":"Sefid Sang","latitude":"35.658","longitude":"60.0949"},{"id":"835139231","name_fa":"\u0646\u0648\u062e\u0646\u062f\u0627\u0646","name_en":"Nokhandan","latitude":"37.5201","longitude":"58.9893"},{"id":"835139234","name_fa":"\u0642\u0627\u0633\u0645 \u0622\u0628\u0627\u062f","name_en":"Qasemabad","latitude":"34.3584","longitude":"59.8613"},{"id":"835139239","name_fa":"\u06a9\u0627\u062e\u06a9","name_en":"Kakhk","latitude":"34.1512","longitude":"58.6393"},{"id":"835139241","name_fa":"\u0686\u06a9\u0646\u0647","name_en":"Chekneh","latitude":"36.818","longitude":"58.5035"},{"id":"835139242","name_fa":"\u0631\u0648\u062f\u0627\u0628","name_en":"Rudab","latitude":"36.0214","longitude":"57.3114"},{"id":"835139247","name_fa":"\u0641\u06cc\u0631\u0648\u0632\u0647","name_en":"Firuzeh","latitude":"36.2864","longitude":"58.5868"},{"id":"835139251","name_fa":"\u0642\u0644\u0646\u062f\u0631\u0622\u0628\u0627\u062f","name_en":"Qalandarabad","latitude":"35.5994","longitude":"59.9499"},{"id":"835139255","name_fa":"\u062f\u0631\u0648\u062f","name_en":"Darrud","latitude":"36.1387","longitude":"59.1162"},{"id":"835139257","name_fa":"\u0628\u0627\u062c\u06af\u06cc\u0631\u0627\u0646","name_en":"Bajgiran","latitude":"37.6219","longitude":"58.4183"},{"id":"835228202","name_fa":"\u0632\u0647\u0627\u0646","name_en":"Zohan","latitude":"33.4227","longitude":"59.8126"},{"id":"835228205","name_fa":"\u0646\u06cc\u0645\u0628\u0644\u0648\u06a9","name_en":"Nimbeluk","latitude":"33.9123","longitude":"58.932"},{"id":"835228208","name_fa":"\u0622\u0631\u06cc\u0646 \u0634\u0647\u0631","name_en":"Arianshahr","latitude":"33.3319","longitude":"59.2334"},{"id":"835228213","name_fa":"\u0633\u0631\u0627\u06cc\u0627\u0646","name_en":"Sarayan","latitude":"33.8625","longitude":"58.5232"},{"id":"835451762","name_fa":"\u0642\u0627\u0636\u06cc","name_en":"Ghazi","latitude":"37.4951","longitude":"56.748"},{"id":"835451768","name_fa":"\u0634\u0648\u0642\u0627\u0646","name_en":"Shuqan","latitude":"37.3419","longitude":"56.8868"},{"id":"835451771","name_fa":"\u0633\u0646\u062e\u0648\u0627\u0633\u062a","name_en":"Sankhast","latitude":"37.0997","longitude":"56.8492"},{"id":"835451779","name_fa":"\u067e\u06cc\u0634 \u0642\u0644\u0639\u0647","name_en":"Pish Qaleh","latitude":"37.6502","longitude":"57.0019"},{"id":"835451789","name_fa":"\u0635\u0641\u06cc \u0622\u0628\u0627\u062f","name_en":"Safiabad","latitude":"36.6961","longitude":"57.93"},{"id":"835451791","name_fa":"\u0644\u0648\u062c\u0644\u06cc","name_en":"Lujli","latitude":"37.6069","longitude":"57.8574"},{"id":"835451797","name_fa":"\u0631\u0627\u0632","name_en":"Raz","latitude":"37.9338","longitude":"57.1114"},{"id":"835451802","name_fa":"\u062f\u0631\u0642","name_en":"Daraq","latitude":"36.9746","longitude":"56.2159"},{"id":"835482212","name_fa":"\u0633\u0631\u062e\u0646\u06a9\u0644\u0627\u062a\u0647","name_en":"Sorkhankalateh","latitude":"36.8925","longitude":"54.5691"},{"id":"835482220","name_fa":"\u0646\u0648\u062f\u0647 \u062e\u0627\u0646\u062f\u0648\u0632","name_en":"Now Deh Khanduz","latitude":"37.0764","longitude":"55.2625"},{"id":"835482222","name_fa":"\u0646\u06af\u06cc\u0646 \u0634\u0647\u0631","name_en":"Neginshahr","latitude":"37.1392","longitude":"55.1639"},{"id":"835482228","name_fa":"\u0641\u0627\u0636\u0644 \u0622\u0628\u0627\u062f","name_en":"Fazelabad","latitude":"36.9004","longitude":"54.7502"},{"id":"835482236","name_fa":"\u0627\u06cc\u0646\u0686\u0647 \u0628\u0631\u0648\u0646","name_en":"Incheboron","latitude":"37.4553","longitude":"54.7183"},{"id":"835482245","name_fa":"\u0646\u0648\u06a9\u0646\u062f\u0647","name_en":"Nokandeh","latitude":"36.74","longitude":"53.9095"},{"id":"835482253","name_fa":"\u0627\u0646\u0628\u0627\u0631\u0622\u0644\u0648\u0645","name_en":"Anbarolum","latitude":"37.1371","longitude":"54.619"},{"id":"835482255","name_fa":"\u062f\u0644\u0646\u062f","name_en":"Daland","latitude":"37.0355","longitude":"55.0492"},{"id":"835482258","name_fa":"\u0645\u0631\u0627\u0648\u0647 \u062a\u067e\u0647","name_en":"Maraveh Tappeh","latitude":"37.9043","longitude":"55.9549"},{"id":"835482269","name_fa":"\u0622\u0642 \u0642\u0644\u0627","name_en":"Aghghala","latitude":"37.0135","longitude":"54.4577"},{"id":"835492674","name_fa":"\u0627\u06cc\u0648\u0627\u0648\u063a\u0644\u06cc","name_en":"Ivughli","latitude":"38.7139","longitude":"45.2066"},{"id":"835537421","name_fa":"\u06a9\u0648\u0647\u06cc \u062e\u06cc\u0644","name_en":"Kuhi Kheyl","latitude":"36.6879","longitude":"52.9118"},{"id":"835537432","name_fa":"\u0645\u0631\u0632\u0646 \u0622\u0628\u0627\u062f","name_en":"Marzan Abad","latitude":"36.454","longitude":"51.3006"},{"id":"835537436","name_fa":"\u067e\u0644 \u0633\u0641\u06cc\u062f","name_en":"Pol-e Sefid","latitude":"36.117","longitude":"53.0575"},{"id":"835537445","name_fa":"\u0633\u0644\u0645\u0627\u0646 \u0634\u0647\u0631","name_en":"Salman Shahr","latitude":"36.7051","longitude":"51.196"},{"id":"835537446","name_fa":"\u0686\u0645\u0633\u062a\u0627\u0646","name_en":"Chamestan","latitude":"36.4774","longitude":"52.1167"},{"id":"835537454","name_fa":"\u06af\u062a\u0627\u0628","name_en":"Gatab","latitude":"36.4317","longitude":"52.6579"},{"id":"835537455","name_fa":"\u062e\u0644\u06cc\u0644 \u0634\u0647\u0631","name_en":"Khalil Shahr","latitude":"36.7013","longitude":"53.6402"},{"id":"835537460","name_fa":"\u0632\u0631\u06af\u0631 \u0634\u0647\u0631","name_en":"Zargarshahr","latitude":"36.5172","longitude":"52.5751"},{"id":"835537465","name_fa":"\u0632\u06cc\u0631\u0622\u0628","name_en":"Zirab","latitude":"36.1797","longitude":"52.977"},{"id":"835537466","name_fa":"\u062f\u0627\u0628\u0648\u062f\u0634\u062a","name_en":"Daboodasht","latitude":"36.4793","longitude":"52.4497"},{"id":"835537475","name_fa":"\u0628\u0644\u062f\u0647","name_en":"Baladeh","latitude":"36.2028","longitude":"51.8089"},{"id":"835537478","name_fa":"\u0633\u0648\u0631\u06a9","name_en":"Surak","latitude":"36.5961","longitude":"53.2108"},{"id":"835537485","name_fa":"\u06af\u0644\u0648\u06af\u0627\u0647","name_en":"Galugah","latitude":"36.3076","longitude":"52.6278"},{"id":"835537489","name_fa":"\u0645\u0631\u0632\u06cc\u06a9\u0644\u0627","name_en":"Marzikola","latitude":"36.3636","longitude":"52.7341"},{"id":"835537493","name_fa":"\u0631\u0633\u062a\u0645 \u06a9\u0644\u0627","name_en":"Rostamkola","latitude":"36.6805","longitude":"53.4269"},{"id":"835537502","name_fa":"\u0639\u0628\u0627\u0633 \u0622\u0628\u0627\u062f","name_en":"Abbasabad","latitude":"36.7273","longitude":"51.1072"},{"id":"835537508","name_fa":"\u0641\u0631\u06cc\u0645","name_en":"Farim","latitude":"36.1758","longitude":"53.2654"},{"id":"835537509","name_fa":"\u0634\u06cc\u0631\u06af\u0627\u0647","name_en":"Shirgah","latitude":"36.3004","longitude":"52.8816"},{"id":"835537510","name_fa":"\u062e\u0648\u0634\u0631\u0648\u062f\u067e\u06cc","name_en":"Khush Rudpey","latitude":"36.3715","longitude":"52.5658"},{"id":"835537511","name_fa":"\u0647\u0627\u062f\u06cc \u0634\u0647\u0631","name_en":"Hadishahr","latitude":"36.6401","longitude":"52.6316"},{"id":"835537512","name_fa":"\u0646\u0634\u062a\u0627\u0631\u0648\u062f","name_en":"Nashtarood","latitude":"36.7486","longitude":"51.0358"},{"id":"836278257","name_fa":"\u06a9\u0648\u0686\u0635\u0641\u0647\u0627\u0646","name_en":"Kuchesfahan","latitude":"37.2787","longitude":"49.7721"},{"id":"836358799","name_fa":"\u062f\u0627\u0631\u0627\u0646","name_en":"Daran","latitude":"32.9866","longitude":"50.4139"},{"id":"836420723","name_fa":"\u0628\u0627\u0628\u0627\u062d\u06cc\u062f\u0631","name_en":"Babaheydar","latitude":"32.3276","longitude":"50.4744"},{"id":"836434376","name_fa":"\u0627\u0645\u06cc\u0631\u06cc\u0647","name_en":"Amiriyeh","latitude":"36.0268","longitude":"54.1405"},{"id":"836434377","name_fa":"\u06a9\u0644\u0627\u062a\u0647 \u062e\u06cc\u062c","name_en":"Kalateh Khij","latitude":"36.6737","longitude":"55.2969"},{"id":"836434378","name_fa":"\u0628\u06cc\u0627\u0631\u062c\u0645\u0646\u062f","name_en":"Beyarjmand","latitude":"36.079","longitude":"55.8099"},{"id":"836434379","name_fa":"\u0622\u0631\u0627\u062f\u0627\u0646","name_en":"Aradan","latitude":"35.2478","longitude":"52.4928"},{"id":"836434381","name_fa":"\u0645\u062c\u0646","name_en":"Mojen","latitude":"36.4797","longitude":"54.6484"},{"id":"836434382","name_fa":"\u0633\u0631\u062e\u0647","name_en":"Sorkheh","latitude":"35.4639","longitude":"53.2135"},{"id":"836465146","name_fa":"\u0639\u0634\u0642 \u0622\u0628\u0627\u062f","name_en":"Eshqabad","latitude":"34.3651","longitude":"56.9314"},{"id":"836465148","name_fa":"\u0634\u0627\u0647\u062f\u06cc\u0647","name_en":"Shahediyeh","latitude":"31.9422","longitude":"54.2828"},{"id":"836539715","name_fa":"\u0641\u0627\u0631\u063a\u0627\u0646","name_en":"Fareghan","latitude":"28.0078","longitude":"56.2551"},{"id":"836539732","name_fa":"\u0628\u0633\u062a\u06a9","name_en":"Bastak","latitude":"27.1977","longitude":"54.3626"},{"id":"836539736","name_fa":"\u0641\u06cc\u0646","name_en":"Fin","latitude":"27.631","longitude":"55.8953"},{"id":"836539753","name_fa":"\u062c\u0646\u0627\u062d","name_en":"Jenah","latitude":"27.0174","longitude":"54.284"},{"id":"836539756","name_fa":"\u0628\u0646\u062f\u0631 \u06a9\u0646\u06af","name_en":"Bandar Kong","latitude":"26.5963","longitude":"54.9371"},{"id":"836539766","name_fa":"\u0647\u0634\u062a\u200c\u0628\u0646\u062f\u06cc","name_en":"Hashtbandi","latitude":"27.1581","longitude":"57.4498"},{"id":"836539778","name_fa":"\u062f\u0631\u06af\u0647\u0627\u0646","name_en":"Dargahan","latitude":"26.9675","longitude":"56.0778"},{"id":"836539788","name_fa":"\u0632\u06cc\u0627\u0631\u062a\u0639\u0644\u06cc","name_en":"Ziaratali","latitude":"27.7415","longitude":"57.2264"},{"id":"836539800","name_fa":"\u0631\u0648\u062f\u0627\u0646","name_en":"Roudan","latitude":"27.4413","longitude":"57.1909"},{"id":"836539801","name_fa":"\u067e\u0627\u0631\u0633\u06cc\u0627\u0646","name_en":"Parsian","latitude":"27.2082","longitude":"53.0351"},{"id":"836539833","name_fa":"\u0628\u0646\u062f\u0631 \u0686\u0627\u0631\u06a9","name_en":"Bandar Charak","latitude":"26.7318","longitude":"54.2791"},{"id":"836539837","name_fa":"\u0633\u0648\u0632\u0627","name_en":"Suza","latitude":"26.7776","longitude":"56.0631"},{"id":"836539842","name_fa":"\u0628\u0646\u062f\u0631 \u062e\u0645\u06cc\u0631","name_en":"Bandar Khamir","latitude":"26.9519","longitude":"55.5855"},{"id":"836539846","name_fa":"\u0633\u06cc\u0631\u06cc\u06a9","name_en":"Seerik","latitude":"26.5177","longitude":"57.1018"},{"id":"836539870","name_fa":"\u062d\u0627\u062c\u06cc \u0622\u0628\u0627\u062f","name_en":"Hajjiabad","latitude":"28.3072","longitude":"55.8985"},{"id":"836764089","name_fa":"\u0622\u0628 \u067e\u062e\u0634","name_en":"Ab Pakhsh","latitude":"29.3604","longitude":"51.0714"},{"id":"836764093","name_fa":"\u0628\u0631\u062f\u062e\u0648\u0646","name_en":"Bordekhoon","latitude":"28.0624","longitude":"51.4772"},{"id":"836764114","name_fa":"\u0622\u0628\u062f\u0627\u0646","name_en":"Abedan","latitude":"28.0812","longitude":"51.7703"},{"id":"836764122","name_fa":"\u0634\u0628\u0627\u0646\u06a9\u0627\u0631\u0647","name_en":"Shabankareh","latitude":"29.4697","longitude":"50.991"},{"id":"836764139","name_fa":"\u06a9\u0644\u0645\u0647","name_en":"Kalameh","latitude":"28.9437","longitude":"51.4582"},{"id":"836764152","name_fa":"\u0633\u0639\u062f\u0622\u0628\u0627\u062f","name_en":"Saadabad","latitude":"29.3848","longitude":"51.1166"},{"id":"836764160","name_fa":"\u0646\u062e\u0644 \u062a\u0642\u06cc","name_en":"Nakhl-e Taghi","latitude":"27.4981","longitude":"52.5839"},{"id":"836764166","name_fa":"\u0628\u0646\u062f\u0631 \u0627\u0645\u0627\u0645 \u062d\u0633\u0646","name_en":"Bandar Imam Hasan","latitude":"29.8407","longitude":"50.2645"},{"id":"836764183","name_fa":"\u0631\u06cc\u0632","name_en":"Riz","latitude":"28.0517","longitude":"52.0837"},{"id":"836764188","name_fa":"\u062f\u0644\u0648\u0627\u0631","name_en":"Delvar","latitude":"28.7629","longitude":"51.0719"},{"id":"836764208","name_fa":"\u0648\u062d\u062f\u062a\u06cc\u0647","name_en":"Vahdatiyeh","latitude":"29.4831","longitude":"51.237"},{"id":"836764214","name_fa":"\u062a\u0646\u06af \u0627\u0631\u0645","name_en":"Tang-e Eram","latitude":"29.1545","longitude":"51.5294"},{"id":"836764246","name_fa":"\u0627\u064e\u0647\u0631\u064e\u0645","name_en":"Ahram","latitude":"28.883","longitude":"51.2742"},{"id":"837357443","name_fa":"\u0627\u0633\u0627\u0644\u0645","name_en":"Asalem","latitude":"37.7206","longitude":"48.9584"},{"id":"837358119","name_fa":"\u062e\u0644\u062e\u0627\u0644","name_en":"Khalkhal","latitude":"37.6192","longitude":"48.5278"},{"id":"840769598","name_fa":"\u0644\u06cc\u06a9\u06a9","name_en":"Likak","latitude":"30.8925","longitude":"50.0917"},{"id":"840769623","name_fa":"\u062f\u0647\u062f\u0634\u062a","name_en":"Dehdasht","latitude":"30.7924","longitude":"50.5629"},{"id":"840769631","name_fa":"\u0644\u0646\u062f\u0647","name_en":"Landeh","latitude":"30.9796","longitude":"50.4239"},{"id":"840769638","name_fa":"\u062f\u06cc\u0634\u0645\u0648\u06a9","name_en":"Dishmuk","latitude":"31.297","longitude":"50.4023"},{"id":"840769644","name_fa":"\u0686\u0631\u0627\u0645","name_en":"Charam","latitude":"30.7508","longitude":"50.7419"},{"id":"840769651","name_fa":"\u0645\u0627\u0631\u06af\u0648\u0646","name_en":"Margown","latitude":"30.9921","longitude":"51.083"},{"id":"840769672","name_fa":"\u0633\u0648\u0642","name_en":"Suq","latitude":"30.8609","longitude":"50.4565"},{"id":"840769678","name_fa":"\u0642\u0644\u0639\u0647 \u0631\u0626\u06cc\u0633\u06cc","name_en":"Qal'eh Raisi","latitude":"31.1905","longitude":"50.4413"},{"id":"840769683","name_fa":"\u06af\u0631\u0627\u0628 \u0633\u0641\u0644\u06cc","name_en":"Garab-e Sofla","latitude":"30.9426","longitude":"50.8983"},{"id":"842111318","name_fa":"\u06a9\u0648\u0645\u0644\u0647","name_en":"Kumeleh","latitude":"37.1524","longitude":"50.1741"},{"id":"842111356","name_fa":"\u0633\u0646\u06af\u0631","name_en":"Sangar","latitude":"37.1798","longitude":"49.6948"},{"id":"842111373","name_fa":"\u0644\u0648\u0646\u062f\u0648\u06cc\u0644","name_en":"Lavandevil","latitude":"38.3083","longitude":"48.8675"},{"id":"842111433","name_fa":"\u06af\u0648\u0631\u0627\u0628 \u0632\u0631\u0645\u06cc\u062e","name_en":"Gorabzarmikh","latitude":"37.3021","longitude":"49.2209"},{"id":"842111462","name_fa":"\u0627\u062d\u0645\u062f\u0633\u0631 \u06af\u0648\u0631\u0627\u0628","name_en":"Ahmadsar Gurab","latitude":"37.1309","longitude":"49.3657"},{"id":"842111483","name_fa":"\u0644\u0634\u062a \u0646\u0634\u0627\u0621","name_en":"Lashtnesha","latitude":"37.3602","longitude":"49.8623"},{"id":"842111537","name_fa":"\u062c\u06cc\u0631\u0646\u062f\u0647","name_en":"Jirandeh","latitude":"36.7021","longitude":"49.7957"},{"id":"842111552","name_fa":"\u067e\u0631\u0647 \u0633\u0631","name_en":"Pareh sar","latitude":"37.6027","longitude":"49.0657"},{"id":"842111591","name_fa":"\u062d\u0648\u06cc\u0642","name_en":"Haviq","latitude":"38.1479","longitude":"48.8946"},{"id":"842111611","name_fa":"\u062e\u0645\u0627\u0645","name_en":"Khomam","latitude":"37.3905","longitude":"49.6607"},{"id":"842111651","name_fa":"\u0634\u0644\u0645\u0627\u0646","name_en":"Shalman","latitude":"37.1559","longitude":"50.2162"},{"id":"842111680","name_fa":"\u062a\u0648\u062a\u06a9\u0627\u0628\u0646","name_en":"Tutkabon","latitude":"36.8928","longitude":"49.5277"},{"id":"842111720","name_fa":"\u062e\u0634\u06a9 \u0628\u06cc\u062c\u0627\u0631","name_en":"Khoshkebijar","latitude":"37.3742","longitude":"49.7582"},{"id":"842111727","name_fa":"\u0634\u0641\u062a","name_en":"Shaft","latitude":"37.1704","longitude":"49.4028"},{"id":"842111746","name_fa":"\u062f\u06cc\u0644\u0645\u0627\u0646","name_en":"Deylaman","latitude":"36.8885","longitude":"49.9067"},{"id":"842111765","name_fa":"\u0634\u0628\u062e\u0648\u0633\u0644\u0627\u062a","name_en":"Unknown","latitude":"37.046","longitude":"50.2369"},{"id":"842111811","name_fa":"\u0627\u064f\u0637\u0627\u0642\u0648\u064e\u0631","name_en":"Otaqvar","latitude":"37.11","longitude":"50.1145"},{"id":"842111819","name_fa":"\u0645\u0627\u0633\u0627\u0644","name_en":"Masal","latitude":"37.3641","longitude":"49.1329"},{"id":"842111839","name_fa":"\u0686\u0648\u0628\u0631","name_en":"Chobar","latitude":"37.0927","longitude":"49.4141"},{"id":"842164154","name_fa":"\u06a9\u0648\u0631\u0627\u06cc\u06cc\u0645","name_en":"Kuraiem","latitude":"37.9552","longitude":"48.2356"},{"id":"842164156","name_fa":"\u0644\u0627\u0647\u0631\u0648\u062f","name_en":"Lahrud","latitude":"38.5081","longitude":"47.8317"},{"id":"842164163","name_fa":"\u0639\u0646\u0628\u0631\u0627\u0646","name_en":"Anbaran","latitude":"38.49","longitude":"48.4355"},{"id":"842164168","name_fa":"\u0622\u0628\u06cc \u0628\u06cc\u06af\u0644\u0648","name_en":"Abibiglou","latitude":"38.2836","longitude":"48.5527"},{"id":"842164176","name_fa":"\u0647\u0634\u062c\u06cc\u0646","name_en":"Hashjin","latitude":"37.3695","longitude":"48.3222"},{"id":"842164182","name_fa":"\u0647\u06cc\u0631","name_en":"Hir","latitude":"38.0802","longitude":"48.5065"},{"id":"842164187","name_fa":"\u0646\u06cc\u0631","name_en":"Nir","latitude":"38.034","longitude":"47.9991"},{"id":"842164195","name_fa":"\u062c\u0639\u0641\u0631 \u0622\u0628\u0627\u062f","name_en":"Jafarabad","latitude":"39.4357","longitude":"48.0946"},{"id":"842164197","name_fa":"\u0646\u0645\u06cc\u0646","name_en":"Namin","latitude":"38.424","longitude":"48.484"},{"id":"842164199","name_fa":"\u0631\u0636\u06cc","name_en":"Razey","latitude":"38.6296","longitude":"48.0957"},{"id":"842164205","name_fa":"\u06a9\u0644\u0648\u0631","name_en":"Kolur","latitude":"37.3889","longitude":"48.7222"},{"id":"842389792","name_fa":"\u0633\u062c\u0627\u0633","name_en":"Sojas","latitude":"36.2403","longitude":"48.5531"},{"id":"842389797","name_fa":"\u0622\u0628 \u0628\u0631","name_en":"Ab Bar","latitude":"36.9259","longitude":"48.9533"},{"id":"842389801","name_fa":"\u0642\u06cc\u062f\u0627\u0631","name_en":"Qeydar","latitude":"36.1227","longitude":"48.5911"},{"id":"842389812","name_fa":"\u0645\u0627\u0647 \u0646\u0634\u0627\u0646","name_en":"Mah Neshan","latitude":"36.7457","longitude":"47.6717"},{"id":"842389814","name_fa":"\u0686\u0648\u0631\u0632\u0642","name_en":"Chavarzagh","latitude":"36.9982","longitude":"48.7776"},{"id":"844608112","name_fa":"\u0642\u06cc\u0631","name_en":"Qir","latitude":"28.4828","longitude":"53.0358"},{"id":"844609070","name_fa":"\u06a9\u0627\u0631\u0632\u06cc\u0646","name_en":"Karzin","latitude":"28.4098","longitude":"53.1064"},{"id":"844610175","name_fa":"\u0645\u06cc\u0645\u0646\u062f","name_en":"Meimand","latitude":"28.8666","longitude":"52.7485"},{"id":"844610562","name_fa":"\u0645\u0628\u0627\u0631\u06a9 \u0622\u0628\u0627\u062f","name_en":"Mobarakabad","latitude":"28.3596","longitude":"53.3282"},{"id":"844619351","name_fa":"\u0642\u0637\u0628 \u0622\u0628\u0627\u062f","name_en":"Qotbabad","latitude":"28.6393","longitude":"53.6378"},{"id":"844624190","name_fa":"\u0632\u0627\u0647\u062f\u0634\u0647\u0631","name_en":"Zahedshahr","latitude":"28.7484","longitude":"53.8041"},{"id":"844625496","name_fa":"\u0646\u0648\u0628\u0646\u062f\u06af\u0627\u0646","name_en":"Now Bandegan","latitude":"28.8546","longitude":"53.8259"},{"id":"844629019","name_fa":"\u0634\u0634\u062f\u0647","name_en":"Sheshdeh","latitude":"28.9486","longitude":"53.9955"},{"id":"848262434","name_fa":"\u0628\u06cc\u0646\u0627\u0644\u0648\u062f","name_en":"Binalood","latitude":"35.9959","longitude":"59.3399"},{"id":"848539468","name_fa":"\u0645\u0647\u0631\u0633\u062a\u0627\u0646","name_en":"Mehrestan","latitude":"27.131","longitude":"61.6747"},{"id":"850572020","name_fa":"\u0639\u0646\u0628\u0631\u0622\u0628\u0627\u062f","name_en":"Anbarabad","latitude":"28.4779","longitude":"57.8441"},{"id":"850576493","name_fa":"\u0642\u0644\u0639\u0647 \u06af\u0646\u062c","name_en":"Qaleh Ganj","latitude":"27.5239","longitude":"57.8771"},{"id":"850590739","name_fa":"\u0627\u0631\u0632\u0648\u0626\u06cc\u0647","name_en":"Arzuiyeh","latitude":"28.4569","longitude":"56.3634"},{"id":"853294220","name_fa":"\u062e\u0627\u062a\u0648\u0646 \u0622\u0628\u0627\u062f","name_en":"Khatunabad","latitude":"30.0077","longitude":"55.4205"},{"id":"874521405","name_fa":"\u0633\u0631\u062f\u0631\u0648\u062f","name_en":"Sardrud","latitude":"38.0279","longitude":"46.1474"},{"id":"874521412","name_fa":"\u0644\u06cc\u0644\u0627\u0646","name_en":"Leylan","latitude":"37.0111","longitude":"46.2059"},{"id":"874521429","name_fa":"\u0645\u0647\u0631\u0628\u0627\u0646","name_en":"Mehraban","latitude":"38.0807","longitude":"47.1318"},{"id":"874521431","name_fa":"\u062a\u0631\u06a9\u0645\u0627\u0646\u0686\u0627\u06cc","name_en":"Torkamanchay","latitude":"37.5817","longitude":"47.3911"},{"id":"874521446","name_fa":"\u0632\u0631\u0646\u0642","name_en":"Zarnaq","latitude":"38.0923","longitude":"47.0829"},{"id":"874521451","name_fa":"\u0633\u06cc\u0633","name_en":"Sis","latitude":"38.1997","longitude":"45.8124"},{"id":"874521465","name_fa":"\u0622\u0628\u06cc\u0634 \u0627\u062d\u0645\u062f","name_en":"Abish Ahmad","latitude":"39.0432","longitude":"47.317"},{"id":"874521482","name_fa":"\u062e\u0648\u0627\u062c\u0647","name_en":"Khajeh","latitude":"38.1529","longitude":"46.5828"},{"id":"874521488","name_fa":"\u06a9\u0646\u062f\u0631\u0648\u062f","name_en":"Kond Rud","latitude":"38.0099","longitude":"46.479"},{"id":"874521545","name_fa":"\u06a9\u0648\u0632\u0647 \u06a9\u0646\u0627\u0646","name_en":"Kuzekonan","latitude":"38.1866","longitude":"45.5751"},{"id":"874521565","name_fa":"\u0632\u0646\u0648\u0632","name_en":"Zonuz","latitude":"38.588","longitude":"45.832"},{"id":"874521570","name_fa":"\u0646\u0638\u0631\u06a9\u0647\u0631\u06cc\u0632\u06cc","name_en":"Nazarkahrizi","latitude":"37.347","longitude":"46.763"},{"id":"874521588","name_fa":"\u0628\u062e\u0634\u0627\u06cc\u0634","name_en":"Bakhshayesh","latitude":"38.1316","longitude":"46.9471"},{"id":"874521594","name_fa":"\u0633\u06cc\u0647 \u0631\u0648\u062f","name_en":"Siyahrud","latitude":"38.8694","longitude":"46.0023"},{"id":"874521620","name_fa":"\u06cc\u0627\u0645\u0686\u06cc","name_en":"Yamchi","latitude":"38.5223","longitude":"45.6404"},{"id":"874521639","name_fa":"\u062e\u0627\u0631\u0648\u0627\u0646\u0627","name_en":"Kharvana","latitude":"38.6851","longitude":"46.1698"},{"id":"874521645","name_fa":"\u062e\u062f\u0627\u062c\u0648","name_en":"Khodaju","latitude":"37.3128","longitude":"46.531"},{"id":"874521661","name_fa":"\u0647\u0631\u06cc\u0633","name_en":"Heris","latitude":"38.2473","longitude":"47.1163"},{"id":"874521669","name_fa":"\u062a\u06cc\u06a9\u0645\u0647 \u062f\u0627\u0634","name_en":"Tikmedash","latitude":"37.7257","longitude":"46.9376"},{"id":"874521690","name_fa":"\u062a\u064e\u0631\u06a9","name_en":"Tark","latitude":"37.6163","longitude":"47.771"},{"id":"874521708","name_fa":"\u06a9\u0634\u06a9\u0633\u0631\u0627\u06cc","name_en":"Koshksaray","latitude":"38.4586","longitude":"45.5673"},{"id":"874521712","name_fa":"\u0622\u0642 \u06a9\u0646\u062f","name_en":"Aq kand","latitude":"37.2576","longitude":"48.0649"},{"id":"874521732","name_fa":"\u062f\u0648\u0632\u062f\u0648\u0632\u0627\u0646","name_en":"Duzduzan","latitude":"37.949","longitude":"47.1198"},{"id":"879415622","name_fa":"\u0686\u0647\u0627\u0631\u0628\u0631\u062c","name_en":"Chaharborj","latitude":"37.125","longitude":"45.9772"},{"id":"879415625","name_fa":"\u0633\u06cc\u0645\u06cc\u0646\u0647","name_en":"Simineh","latitude":"36.7303","longitude":"46.1534"},{"id":"879415659","name_fa":"\u0633\u06cc\u0644\u0648\u0627\u0646\u0627","name_en":"Silvaneh","latitude":"37.4217","longitude":"44.8543"},{"id":"879415692","name_fa":"\u0622\u0648\u0627\u062c\u06cc\u0642","name_en":"Avajiq","latitude":"39.3302","longitude":"44.1539"},{"id":"879415696","name_fa":"\u0645\u06cc\u0631\u0622\u0628\u0627\u062f","name_en":"Mirabad","latitude":"36.4055","longitude":"45.3719"},{"id":"879415716","name_fa":"\u0644\u0627\u062c\u0627\u0646","name_en":"Gherdakshaneh","latitude":"36.8085","longitude":"45.2645"},{"id":"879415744","name_fa":"\u0634\u0648\u0637","name_en":"Showt","latitude":"39.2179","longitude":"44.7712"},{"id":"879415755","name_fa":"\u0633\u06cc\u0647 \u0686\u0634\u0645\u0647","name_en":"Chaldran","latitude":"39.0651","longitude":"44.3844"},{"id":"879415760","name_fa":"\u06a9\u0634\u0627\u0648\u0631\u0632","name_en":"Keshavarz","latitude":"36.8355","longitude":"46.3574"},{"id":"879415784","name_fa":"\u0641\u06cc\u0631\u0648\u0631\u0642","name_en":"Firuraq","latitude":"38.5821","longitude":"44.8316"},{"id":"879415793","name_fa":"\u0631\u0628\u0637","name_en":"Rabat","latitude":"36.2092","longitude":"45.5542"},{"id":"879415823","name_fa":"\u0645\u0627\u06a9\u0648","name_en":"Maku","latitude":"39.291","longitude":"44.4521"},{"id":"891686054","name_fa":"\u0633\u0645\u06cc\u0631\u0645","name_en":"Semirom","latitude":"31.4137","longitude":"51.5708"},{"id":"898805820","name_fa":"\u062d\u0646\u0627","name_en":"Hanna","latitude":"31.1972","longitude":"51.7245"},{"id":"898876090","name_fa":"\u062f\u0627\u0645\u0646\u0647","name_en":"Damaneh","latitude":"33.0179","longitude":"50.4893"},{"id":"905629614","name_fa":"\u06a9\u0627\u0645\u06cc\u0627\u0631\u0627\u0646","name_en":"Kamyaran","latitude":"34.7974","longitude":"46.9361"},{"id":"905640075","name_fa":"\u0631\u0648\u0627\u0646\u0633\u0631","name_en":"Ravansar","latitude":"34.7161","longitude":"46.6508"},{"id":"918588012","name_fa":"\u0622\u0628\u0633\u0631\u062f","name_en":"Absard","latitude":"35.6232","longitude":"52.1528"},{"id":"1096213780","name_fa":"\u0627\u0633\u062d\u0627\u0642 \u0622\u0628\u0627\u062f","name_en":"Eshaq Abad","latitude":"36.0307","longitude":"59.0069"},{"id":"1124021432","name_fa":"\u0646\u0648\u0642\u0627\u0628","name_en":"Noqab","latitude":"34.3525","longitude":"58.7288"},{"id":"1126902490","name_fa":"\u06af\u0644\u0645\u06a9\u0627\u0646","name_en":"Golmakan","latitude":"36.4818","longitude":"59.1595"},{"id":"1164234734","name_fa":"\u062d\u0627\u062c\u06cc \u0622\u0628\u0627\u062f","name_en":"Hajiabad","latitude":"28.3591","longitude":"54.4207"},{"id":"1170071609","name_fa":"\u0645\u0627\u0698\u0627\u0646","name_en":"Unknown","latitude":"32.5829","longitude":"59.015"},{"id":"1177983986","name_fa":"\u062c\u0648\u06cc\u0645","name_en":"Juyom","latitude":"28.2531","longitude":"53.9833"},{"id":"1177985146","name_fa":"\u0628\u0646\u0627\u0631\u0648\u06cc\u0647","name_en":"Banaruiyeh","latitude":"28.0833","longitude":"54.0468"},{"id":"1179175689","name_fa":"\u0628\u0644\u063a\u0627\u0646","name_en":"Bolghan","latitude":"28.1521","longitude":"53.6032"},{"id":"1320590467","name_fa":"\u0646\u06af\u0627\u0631","name_en":"Negar","latitude":"29.8575","longitude":"56.8004"},{"id":"1347623690","name_fa":"\u0646\u0645\u06a9 \u0622\u0628\u0631\u0648\u062f","name_en":"Namak Abrud","latitude":"36.6763","longitude":"51.3059"},{"id":"1354765380","name_fa":"\u0686\u0646\u0627\u0631","name_en":"Chenar","latitude":"36.6922","longitude":"59.9768"},{"id":"1355416592","name_fa":"\u0642\u0635\u0627\u0628\u0647","name_en":"Qosabeh","latitude":"38.3837","longitude":"47.5456"},{"id":"1355419601","name_fa":"Unknown","name_en":"Unknown","latitude":"38.5642","longitude":"47.4961"},{"id":"1362483060","name_fa":"\u0632\u0646\u06af\u06cc \u0622\u0628\u0627\u062f","name_en":"Zangi Abad","latitude":"30.4103","longitude":"56.9155"},{"id":"1365335261","name_fa":"\u062e\u0627\u0646\u0648\u06a9","name_en":"Khanuk","latitude":"30.7174","longitude":"56.7759"},{"id":"1367738476","name_fa":"\u0627\u062e\u062a\u06cc\u0627\u0631\u0622\u0628\u0627\u062f","name_en":"Ekhtiarabad","latitude":"30.3277","longitude":"56.9247"},{"id":"1384275012","name_fa":"\u0641\u0627\u0631\u0645\u062f","name_en":"Farmad","latitude":"36.4443","longitude":"59.7131"},{"id":"1408415149","name_fa":"\u0634\u0645\u0634\u06a9","name_en":"Shemshak","latitude":"36.0114","longitude":"51.4909"},{"id":"1413011425","name_fa":"\u0628\u0627\u063a \u0645\u0644\u06a9","name_en":"Bagh Malek","latitude":"31.5247","longitude":"49.8869"},{"id":"1413017946","name_fa":"\u0642\u0644\u0639\u0647 \u062a\u0644","name_en":"Qaleh Toll","latitude":"31.6307","longitude":"49.8908"},{"id":"1455177988","name_fa":"\u0628\u0634\u0631\u0648\u06cc\u0647","name_en":"Boshruyeh","latitude":"33.8662","longitude":"57.4254"},{"id":"1487544742","name_fa":"\u0634\u0647\u0631\u0636\u0627","name_en":"Shahreza","latitude":"32.0116","longitude":"51.8652"},{"id":"1487757399","name_fa":"\u06cc\u0632\u062f","name_en":"Yazd","latitude":"31.9052","longitude":"54.3701"},{"id":"1500164904","name_fa":"\u0634\u0647\u0631 \u0635\u062f\u0631\u0627","name_en":"Sadra city","latitude":"29.8154","longitude":"52.4749"},{"id":"1525361054","name_fa":"\u0645\u0632\u0631\u0639\u0647 \u06a9\u062a\u0648\u0644","name_en":"Unknown","latitude":"36.9548","longitude":"54.8583"},{"id":"1581056854","name_fa":"\u0631\u0648\u0634\u0646\u0627\u0648\u0646\u062f","name_en":"Rushnavand","latitude":"34.4667","longitude":"58.9117"},{"id":"1596473336","name_fa":"\u06af\u0646\u0628\u062f \u06a9\u0627\u0648\u0648\u0633","name_en":"Gonbad-e Qabus","latitude":"37.2493","longitude":"55.1659"},{"id":"1622917994","name_fa":"\u06a9\u0647\u0631\u06cc\u0632","name_en":"Kahriz","latitude":"37.8719","longitude":"44.9711"},{"id":"1625266777","name_fa":"\u0628\u06a9\u062a\u0627\u0634","name_en":"Unknown","latitude":"37.077","longitude":"46.0149"},{"id":"1704087700","name_fa":"\u0627\u0645\u0627\u0645 \u0634\u0647\u0631","name_en":"Emamshahr","latitude":"28.4467","longitude":"53.1529"},{"id":"1704087701","name_fa":"\u0641\u0631\u062e \u0634\u0647\u0631","name_en":"Farrokhshahr","latitude":"32.2732","longitude":"50.9837"},{"id":"1704087702","name_fa":"\u06af\u0647\u0631\u0648","name_en":"Gahru","latitude":"32.0048","longitude":"50.8872"},{"id":"1704087703","name_fa":"\u0641\u0631\u062d \u0622\u0628\u0627\u062f","name_en":"Farah Abad","latitude":"30.426","longitude":"56.8813"},{"id":"1704087704","name_fa":"\u062c\u0648\u0646\u0642\u0627\u0646","name_en":"Junqan","latitude":"32.1517","longitude":"50.6856"},{"id":"1704087705","name_fa":"\u0646\u0627\u063a\u0627\u0646","name_en":"Naghan","latitude":"31.9345","longitude":"50.7277"},{"id":"1704087707","name_fa":"\u0634\u0644\u0645\u0632\u0627\u0631","name_en":"Shalamzar","latitude":"32.0465","longitude":"50.8185"},{"id":"1704087709","name_fa":"\u0633\u0648\u0631\u0634\u062c\u0627\u0646","name_en":"Sureshjan","latitude":"32.3164","longitude":"50.6762"},{"id":"1704087710","name_fa":"\u0637\u0627\u0642\u0627\u0646\u06a9","name_en":"Taqanak","latitude":"32.2224","longitude":"50.8393"},{"id":"1713078718","name_fa":"\u0646\u0627\u0641\u0686","name_en":"Nafch","latitude":"32.4228","longitude":"50.7897"},{"id":"1713106398","name_fa":"\u0647\u0641\u0634\u062c\u0627\u0646","name_en":"Hafshejan","latitude":"32.2255","longitude":"50.7945"},{"id":"1713127338","name_fa":"\u0633\u0648\u062f\u062c\u0627\u0646","name_en":"Sodejan","latitude":"32.5216","longitude":"50.4019"},{"id":"1713166016","name_fa":"\u0627\u0641\u0648\u0633","name_en":"Afus","latitude":"33.0241","longitude":"50.093"},{"id":"1753687451","name_fa":"\u06a9\u0627\u0645\u0641\u06cc\u0631\u0648\u0632","name_en":"Kamfiruz","latitude":"30.3223","longitude":"52.1933"},{"id":"1760767163","name_fa":"\u0622\u0628\u0639\u0644\u06cc","name_en":"Abali","latitude":"35.762","longitude":"51.9628"},{"id":"1862233069","name_fa":"Unknown","name_en":"Unknown","latitude":"38.399","longitude":"47.3645"},{"id":"1862647434","name_fa":"\u0627\u0647\u0631","name_en":"Ahar","latitude":"38.4775","longitude":"47.0662"},{"id":"1862670450","name_fa":"\u0627\u0631\u0628\u0637\u0627\u0646","name_en":"Arbatan","latitude":"38.1745","longitude":"46.9384"},{"id":"1864175792","name_fa":"\u0633\u0631\u0627\u0628","name_en":"Sarab","latitude":"37.9408","longitude":"47.5375"},{"id":"1864291211","name_fa":"\u06a9\u0631\u062f \u06a9\u0646\u062f\u06cc","name_en":"Kurdkandi","latitude":"37.9573","longitude":"46.9557"},{"id":"1865539749","name_fa":"\u062f\u0647\u0631\u0645","name_en":"Dehram","latitude":"28.4921","longitude":"52.3037"},{"id":"1883871566","name_fa":"\u0628\u0627\u0641\u0642","name_en":"Bafq","latitude":"31.5997","longitude":"55.3967"},{"id":"1894177571","name_fa":"\u0636\u06cc\u0627\u0621 \u0622\u0628\u0627\u062f","name_en":"Ziaya Abad","latitude":"35.9952","longitude":"49.4485"},{"id":"1896768727","name_fa":"\u0633\u067e\u06cc\u062f \u062f\u0634\u062a","name_en":"Sepiddasht","latitude":"33.2184","longitude":"48.8828"},{"id":"1900973036","name_fa":"\u062c\u0644\u0641\u0627","name_en":"Jolfa","latitude":"38.9376","longitude":"45.6252"},{"id":"1905983222","name_fa":"\u06af\u0646\u062f\u0645\u0627\u0646","name_en":"Gandoman","latitude":"31.865","longitude":"51.1538"},{"id":"1909925519","name_fa":"\u06a9\u0627\u0634\u0627\u0646","name_en":"Kashan","latitude":"33.9877","longitude":"51.4429"},{"id":"1925169910","name_fa":"\u0631\u0648\u062f\u0647\u0646","name_en":"Rudehen","latitude":"35.7348","longitude":"51.9064"},{"id":"1932879629","name_fa":"\u0633\u0646\u0646\u062f\u062c","name_en":"Sanandaj","latitude":"35.3126","longitude":"46.9979"},{"id":"2000556701","name_fa":"\u0645\u0628\u0627\u0631\u06a9 \u0634\u0647\u0631","name_en":"MobarakShahr","latitude":"37.1833","longitude":"46.058"},{"id":"2048982952","name_fa":"\u0634\u0627\u0647\u0631\u0648\u062f","name_en":"Shahrud","latitude":"36.4195","longitude":"54.965"},{"id":"2051963268","name_fa":"\u0642\u0647\u0633\u062a\u0627\u0646","name_en":"Qohestan","latitude":"33.1495","longitude":"59.7166"},{"id":"2055287338","name_fa":"\u062a\u0631\u0628\u062a \u062d\u06cc\u062f\u0631\u06cc\u0647","name_en":"Torbat-e Heydarieh","latitude":"35.2741","longitude":"59.2194"},{"id":"2072015069","name_fa":"\u0622\u0645\u0644","name_en":"Amol","latitude":"36.4719","longitude":"52.3499"},{"id":"2073160712","name_fa":"\u0633\u0645\u0646\u0627\u0646","name_en":"Semnan","latitude":"35.5834","longitude":"53.3883"},{"id":"2074455167","name_fa":"\u06af\u0631\u06af\u0627\u0646","name_en":"Gorgan","latitude":"36.8393","longitude":"54.4321"},{"id":"2082525179","name_fa":"\u062f\u0631\u062d","name_en":"Doroh","latitude":"32.2888","longitude":"60.4901"},{"id":"2094150295","name_fa":"\u0627\u06cc\u0644\u0627\u0645","name_en":"Ilam","latitude":"33.6379","longitude":"46.4203"},{"id":"2108742744","name_fa":"\u0631\u0641\u0633\u0646\u062c\u0627\u0646","name_en":"Rafsanjan","latitude":"30.4022","longitude":"55.9942"},{"id":"2124202500","name_fa":"\u062e\u0631\u0645 \u0622\u0628\u0627\u062f","name_en":"Khorramabad","latitude":"33.4842","longitude":"48.3538"},{"id":"2135846791","name_fa":"\u062e\u0631\u0645\u0634\u0647\u0631","name_en":"Khorramshahr","latitude":"30.4333","longitude":"48.178"},{"id":"2180077224","name_fa":"\u0686\u062e\u0645\u0627\u0642","name_en":"Chakhmaq","latitude":"35.2717","longitude":"59.8319"},{"id":"2225195642","name_fa":"\u062f\u06cc\u0632\u062c","name_en":"Dizaj Town","latitude":"34.8276","longitude":"48.4857"},{"id":"2232069456","name_fa":"\u0628\u0648\u0645\u0647\u0646","name_en":"Bumehen","latitude":"35.7285","longitude":"51.8643"},{"id":"2246459252","name_fa":"\u0634\u0648\u06cc\u0634\u0647","name_en":"Shuyesheh","latitude":"35.3571","longitude":"46.6765"},{"id":"2246558376","name_fa":"\u0633\u0631\u0648\u0622\u0628\u0627\u062f","name_en":"Sarvabad","latitude":"35.3123","longitude":"46.366"},{"id":"2246993688","name_fa":"\u0628\u0631\u062f\u06d5 \u0631\u0634\u0647","name_en":"Unknown","latitude":"35.5945","longitude":"46.0908"},{"id":"2247142860","name_fa":"\u062c\u0627\u0646\u0648\u0631\u0647","name_en":"Unknown","latitude":"35.5256","longitude":"46.5587"},{"id":"2247269122","name_fa":"\u06a9\u0627\u0646\u06cc \u062f\u06cc\u0646\u0627\u0631","name_en":"Kani Dinar","latitude":"35.4644","longitude":"46.2081"},{"id":"2260237637","name_fa":"\u0628\u0627\u062f\u0648\u0644\u0647","name_en":"Baduleh","latitude":"28.3964","longitude":"51.5008"},{"id":"2267717709","name_fa":"\u0646\u0648\u0633\u0648\u062f","name_en":"Nowsud","latitude":"35.1613","longitude":"46.2042"},{"id":"2268134218","name_fa":"\u0635\u0627\u062d\u0628","name_en":"Saheb","latitude":"36.2018","longitude":"46.4611"},{"id":"2269448029","name_fa":"\u06af\u0634\u062a","name_en":"Gosht","latitude":"27.7893","longitude":"61.9513"},{"id":"2269726759","name_fa":"\u062c\u0627\u0644\u0642","name_en":"Jaleq","latitude":"27.6033","longitude":"62.7097"},{"id":"2303781424","name_fa":"\u0686\u0627\u0644\u0648\u0633","name_en":"Chalus","latitude":"36.6506","longitude":"51.4224"},{"id":"2319420949","name_fa":"\u0641\u06cc\u0631\u0648\u0632\u06a9\u0648\u0647","name_en":"Firuzkuh","latitude":"35.7557","longitude":"52.7731"},{"id":"2326794015","name_fa":"\u062f\u0645\u0627\u0648\u0646\u062f","name_en":"Damavand","latitude":"35.718","longitude":"52.0682"},{"id":"2334540982","name_fa":"\u0634\u0647\u0631 \u06a9\u06cc\u0627\u0646","name_en":"Shahr e Kiyan","latitude":"32.2836","longitude":"50.8917"},{"id":"2344266175","name_fa":"\u0627\u062d\u0645\u062f\u0622\u0628\u0627\u062f \u0635\u0648\u0644\u062a","name_en":"Ahmadabad-e Sowlat","latitude":"35.1164","longitude":"60.6897"},{"id":"2344266252","name_fa":"\u0633\u0645\u06cc\u0639 \u0622\u0628\u0627\u062f","name_en":"Samiabad-e Arbab Din Mohammad","latitude":"35.1482","longitude":"60.9052"},{"id":"2357660925","name_fa":"\u0627\u0632\u06af\u0644\u0647","name_en":"Ezgeleh","latitude":"34.8322","longitude":"45.8425"},