[
    {
        "id": "25960293",
        "name_fa": "تهران",
        "name_en": "Tehran",
        "latitude": "35.688888888889",
        "longitude": "51.389722222222"
    },
    {
        "id": "26038567",
        "name_fa": "اصفهان",
        "name_en": "Isfahan",
        "latitude": "32.6525",
        "longitude": "51.675"
    },
    {
        "id": "26038568",
        "name_fa": "مشهد",
        "name_en": "Mashhad",
        "latitude": "36.297494444444",
        "longitude": "59.605923055556"
    },
    {
        "id": "26038590",
        "name_fa": "تبریز",
        "name_en": "Tabriz",
        "latitude": "38.073888888889",
        "longitude": "46.296111111111"
    },
    {
        "id": "26082288",
        "name_fa": "قزوین",
        "name_en": "Qazvin",
        "latitude": "36.285436666667",
        "longitude": "50.0041"
    },
    {
        "id": "26082452",
        "name_fa": "شيراز",
        "name_en": "Shiraz",
        "latitude": "29.61",
        "longitude": "52.5425"
    },
    {
        "id": "26084263",
        "name_fa": "جندق",
        "name_en": "Jandaq",
        "latitude": "34.041666666667",
        "longitude": "54.415277777778"
    },
    {
        "id": "26232648",
        "name_fa": "خرانق",
        "name_en": "Kharanaq",
        "latitude": "32.346111111111",
        "longitude": "54.665833333333"
    },
    {
        "id": "26399215",
        "name_fa": "ارومیه",
        "name_en": "Urmia",
        "latitude": "37.548611111111",
        "longitude": "45.0675"
    },
    {
        "id": "26476202",
        "name_fa": "میناب",
        "name_en": "Minab",
        "latitude": "27.131111111111",
        "longitude": "57.087222222222"
    },
    {
        "id": "26476270",
        "name_fa": "کهنوج",
        "name_en": "Kahnuj",
        "latitude": "27.95",
        "longitude": "57.702"
    },
    {
        "id": "26604766",
        "name_fa": "زاهدان",
        "name_en": "Zahedan",
        "latitude": "29.496388888889",
        "longitude": "60.862777777778"
    },
    {
        "id": "27149665",
        "name_fa": "رینه",
        "name_en": "Rineh",
        "latitude": "35.881666666667",
        "longitude": "52.17"
    },
    {
        "id": "27403186",
        "name_fa": "نایین",
        "name_en": "Na'in",
        "latitude": "32.86",
        "longitude": "53.0875"
    },
    {
        "id": "27408474",
        "name_fa": "زارچ",
        "name_en": "Zarch",
        "latitude": "31.991111111111",
        "longitude": "54.231944444444"
    },
    {
        "id": "27442136",
        "name_fa": "بندر انزلی",
        "name_en": "Bandar-e Anzali",
        "latitude": "37.473055555556",
        "longitude": "49.457777777778"
    },
    {
        "id": "27557313",
        "name_fa": "همدان",
        "name_en": "Hamedan",
        "latitude": "34.8",
        "longitude": "48.516666666667"
    },
    {
        "id": "29070193",
        "name_fa": "نظرآباد",
        "name_en": "Nazarabad",
        "latitude": "35.952222222222",
        "longitude": "50.6075"
    },
    {
        "id": "29071181",
        "name_fa": "آبیک",
        "name_en": "Abyek",
        "latitude": "36.016666666667",
        "longitude": "50.516666666667"
    },
    {
        "id": "29071221",
        "name_fa": "محمدیه",
        "name_en": "Mohammadiyeh",
        "latitude": "36.223611111111",
        "longitude": "50.183333333333"
    },
    {
        "id": "29362857",
        "name_fa": "کوهین",
        "name_en": "Kuhin",
        "latitude": "36.36888889",
        "longitude": "49.66361111"
    },
    {
        "id": "30115597",
        "name_fa": "اردبیل",
        "name_en": "Ardabil",
        "latitude": "38.25",
        "longitude": "48.3"
    },
    {
        "id": "30214401",
        "name_fa": "لوشان",
        "name_en": "Lowshan",
        "latitude": "36.62055556",
        "longitude": "49.51055556"
    },
    {
        "id": "30291253",
        "name_fa": "رودبار",
        "name_en": "Rudbar",
        "latitude": "36.805",
        "longitude": "49.408055555556"
    },
    {
        "id": "30291677",
        "name_fa": "رستم آباد",
        "name_en": "Rostam Abad",
        "latitude": "36.8833",
        "longitude": "49.4833"
    },
    {
        "id": "32123707",
        "name_fa": "خسروشاه",
        "name_en": "Khosrowshah",
        "latitude": "37.949722222222",
        "longitude": "46.052777777778"
    },
    {
        "id": "32132431",
        "name_fa": "صوفیان",
        "name_en": "Sufian",
        "latitude": "38.2775",
        "longitude": "45.980555555556"
    },
    {
        "id": "32637964",
        "name_fa": "ساوه",
        "name_en": "Saveh",
        "latitude": "35.021388888889",
        "longitude": "50.356666666667"
    },
    {
        "id": "32662365",
        "name_fa": "دزفول",
        "name_en": "Dezful",
        "latitude": "32.381111111111",
        "longitude": "48.405833333333"
    },
    {
        "id": "32662367",
        "name_fa": "اندیمشک",
        "name_en": "Andimeshk",
        "latitude": "32.471946007108",
        "longitude": "48.346700885981"
    },
    {
        "id": "32662667",
        "name_fa": "شوش",
        "name_en": "Shush",
        "latitude": "32.194166666667",
        "longitude": "48.243611111111"
    },
    {
        "id": "32663267",
        "name_fa": "دورود",
        "name_en": "Dorud",
        "latitude": "33.493333333333",
        "longitude": "49.075"
    },
    {
        "id": "32663279",
        "name_fa": "کرمانشاه",
        "name_en": "Kermanshah",
        "latitude": "34.316666666667",
        "longitude": "47.068611111111"
    },
    {
        "id": "32663613",
        "name_fa": "بانه",
        "name_en": "Baneh",
        "latitude": "35.9975",
        "longitude": "45.885277777778"
    },
    {
        "id": "32664078",
        "name_fa": "مراغه",
        "name_en": "Maragheh",
        "latitude": "37.391944444444",
        "longitude": "46.239166666667"
    },
    {
        "id": "32664146",
        "name_fa": "بناب",
        "name_en": "Bonab",
        "latitude": "37.340277777778",
        "longitude": "46.056111111111"
    },
    {
        "id": "32671869",
        "name_fa": "آذرشهر",
        "name_en": "Azarshahr",
        "latitude": "37.758888888889",
        "longitude": "45.978333333333"
    },
    {
        "id": "32672048",
        "name_fa": "میانه",
        "name_en": "Mianeh",
        "latitude": "37.421111111111",
        "longitude": "47.715"
    },
    {
        "id": "32673030",
        "name_fa": "سقز",
        "name_en": "Saqqez",
        "latitude": "36.25",
        "longitude": "46.273611111111"
    },
    {
        "id": "32673155",
        "name_fa": "مهاباد",
        "name_en": "Mahabad",
        "latitude": "36.765",
        "longitude": "45.721"
    },
    {
        "id": "32673769",
        "name_fa": "املش",
        "name_en": "Amlash",
        "latitude": "37.0975",
        "longitude": "50.186388888889"
    },
    {
        "id": "32674028",
        "name_fa": "بابل",
        "name_en": "Babol",
        "latitude": "36.551111111111",
        "longitude": "52.678611111111"
    },
    {
        "id": "32675333",
        "name_fa": "سبزوار",
        "name_en": "Sabzevar",
        "latitude": "36.2125",
        "longitude": "57.681944444444"
    },
    {
        "id": "32675715",
        "name_fa": "نیشابور",
        "name_en": "Neyshabur",
        "latitude": "36.213333333333",
        "longitude": "58.795833333333"
    },
    {
        "id": "32676699",
        "name_fa": "شهرکرد",
        "name_en": "Shahr-e Kord",
        "latitude": "32.325555555556",
        "longitude": "50.864444444444"
    },
    {
        "id": "32677634",
        "name_fa": "بیرجند",
        "name_en": "Birjand",
        "latitude": "32.866388888889",
        "longitude": "59.221111111111"
    },
    {
        "id": "32677945",
        "name_fa": "کرمان",
        "name_en": "Kerman",
        "latitude": "30.291111111111",
        "longitude": "57.067777777778"
    },
    {
        "id": "32677946",
        "name_fa": "سيرجان",
        "name_en": "Sirjan",
        "latitude": "29.451388888889",
        "longitude": "55.680833333333"
    },
    {
        "id": "32678002",
        "name_fa": "بم",
        "name_en": "Bam",
        "latitude": "29.106111111111",
        "longitude": "58.356944444444"
    },
    {
        "id": "32678220",
        "name_fa": "زابل",
        "name_en": "Zabol",
        "latitude": "31.030555555556",
        "longitude": "61.495"
    },
    {
        "id": "32826329",
        "name_fa": "آبادان",
        "name_en": "Abadan",
        "latitude": "30.339166666667",
        "longitude": "48.304166666667"
    },
    {
        "id": "32826331",
        "name_fa": "بجنورد",
        "name_en": "Bojnurd",
        "latitude": "37.466666666667",
        "longitude": "57.333333333333"
    },
    {
        "id": "32826332",
        "name_fa": "بوشهر",
        "name_en": "Bushehr",
        "latitude": "28.968888888889",
        "longitude": "50.836666666667"
    },
    {
        "id": "32826994",
        "name_fa": "خوی",
        "name_en": "Khoy",
        "latitude": "38.550277777778",
        "longitude": "44.952222222222"
    },
    {
        "id": "32827436",
        "name_fa": "مسجد سلیمان",
        "name_en": "Masjed Soleyman",
        "latitude": "31.957989067516",
        "longitude": "49.290197805256"
    },
    {
        "id": "32828378",
        "name_fa": "زنجان",
        "name_en": "Zanjan",
        "latitude": "36.666666666667",
        "longitude": "48.483333333333"
    },
    {
        "id": "32889948",
        "name_fa": "مرند",
        "name_en": "Marand",
        "latitude": "38.416666666667",
        "longitude": "45.766666666667"
    },
    {
        "id": "171461266",
        "name_fa": "قره ضیاءالدین",
        "name_en": "Qaraziadin",
        "latitude": "38.891388888889",
        "longitude": "45.025555555556"
    },
    {
        "id": "180544443",
        "name_fa": "سلماس",
        "name_en": "Salmas",
        "latitude": "38.2",
        "longitude": "44.766666666667"
    },
    {
        "id": "181296509",
        "name_fa": "پیرانشهر",
        "name_en": "Piranshahr",
        "latitude": "36.694444444444",
        "longitude": "45.141666666667"
    },
    {
        "id": "181315829",
        "name_fa": "هادیشهر",
        "name_en": "Hadishahr",
        "latitude": "38.847777777778",
        "longitude": "45.662222222222"
    },
    {
        "id": "181327482",
        "name_fa": "بستان آباد",
        "name_en": "Bostanabad",
        "latitude": "37.85",
        "longitude": "46.833333333333"
    },
    {
        "id": "181414801",
        "name_fa": "تیکان تپه",
        "name_en": "Tikab",
        "latitude": "36.400833333333",
        "longitude": "47.113055555556"
    },
    {
        "id": "201299775",
        "name_fa": "رویان",
        "name_en": "Royan",
        "latitude": "36.568611111111",
        "longitude": "51.966944444444"
    },
    {
        "id": "231906831",
        "name_fa": "پارس آباد",
        "name_en": "Parsabad",
        "latitude": "39.648888888889",
        "longitude": "47.911388888889"
    },
    {
        "id": "234330550",
        "name_fa": "منجوان",
        "name_en": "Minjivan",
        "latitude": "39.03",
        "longitude": "46.71861111"
    },
    {
        "id": "234526006",
        "name_fa": "کرج",
        "name_en": "Karaj",
        "latitude": "35.832777777778",
        "longitude": "50.991666666667"
    },
    {
        "id": "235270740",
        "name_fa": "بیجار",
        "name_en": "Bijar",
        "latitude": "35.872777777778",
        "longitude": "47.602777777778"
    },
    {
        "id": "235279115",
        "name_fa": "قروه",
        "name_en": "Qorveh",
        "latitude": "35.166388888889",
        "longitude": "47.804444444444"
    },
    {
        "id": "237556098",
        "name_fa": "اشنویه",
        "name_en": "Oshnaviyeh",
        "latitude": "37.039722222222",
        "longitude": "45.098333333333"
    },
    {
        "id": "244176127",
        "name_fa": "بازرگان",
        "name_en": "Bazargan",
        "latitude": "39.391388888889",
        "longitude": "44.3875"
    },
    {
        "id": "248708371",
        "name_fa": "نی‌ریز",
        "name_en": "Neyriz",
        "latitude": "29.198888888889",
        "longitude": "54.327777777778"
    },
    {
        "id": "248772356",
        "name_fa": "زرقان",
        "name_en": "Zarqan",
        "latitude": "29.773888888889",
        "longitude": "52.723333333333"
    },
    {
        "id": "248776568",
        "name_fa": "سروستان",
        "name_en": "Sarvestan",
        "latitude": "29.273611111111",
        "longitude": "53.220277777778"
    },
    {
        "id": "248777720",
        "name_fa": "استهبان",
        "name_en": "Estahban",
        "latitude": "29.126388888889",
        "longitude": "54.041944444444"
    },
    {
        "id": "248779500",
        "name_fa": "فسا",
        "name_en": "Fasa",
        "latitude": "28.938333333333",
        "longitude": "53.648333333333"
    },
    {
        "id": "248783208",
        "name_fa": "داراب",
        "name_en": "Darab",
        "latitude": "28.751666666667",
        "longitude": "54.540555555556"
    },
    {
        "id": "248783808",
        "name_fa": "قطرویه",
        "name_en": "Qatruyeh",
        "latitude": "29.14555556",
        "longitude": "54.70444444"
    },
    {
        "id": "248842190",
        "name_fa": "ماهان",
        "name_en": "Mahan",
        "latitude": "30.061111111111",
        "longitude": "57.291388888889"
    },
    {
        "id": "248862920",
        "name_fa": "راین",
        "name_en": "Rayen",
        "latitude": "29.59777778",
        "longitude": "57.43861111"
    },
    {
        "id": "249301735",
        "name_fa": "سیوند",
        "name_en": "Sivand",
        "latitude": "30.08",
        "longitude": "52.9228"
    },
    {
        "id": "249307870",
        "name_fa": "اوز",
        "name_en": "Evaz",
        "latitude": "27.762222222222",
        "longitude": "54.004166666667"
    },
    {
        "id": "249308233",
        "name_fa": "اباده",
        "name_en": "Abadeh",
        "latitude": "31.160833333333",
        "longitude": "52.650555555556"
    },
    {
        "id": "249309689",
        "name_fa": "لامرد",
        "name_en": "Lamerd",
        "latitude": "27.333888888889",
        "longitude": "53.178888888889"
    },
    {
        "id": "249310458",
        "name_fa": "بافت",
        "name_en": "Baft",
        "latitude": "29.233055555556",
        "longitude": "56.602222222222"
    },
    {
        "id": "249310574",
        "name_fa": "بردسیر",
        "name_en": "Bardsir",
        "latitude": "29.9275",
        "longitude": "56.572222222222"
    },
    {
        "id": "249311304",
        "name_fa": "زرند",
        "name_en": "Zarand",
        "latitude": "30.812777777778",
        "longitude": "56.563888888889"
    },
    {
        "id": "249311493",
        "name_fa": "شهر بابک",
        "name_en": "Shahr-e Babak",
        "latitude": "30.116388888889",
        "longitude": "55.118611111111"
    },
    {
        "id": "249312588",
        "name_fa": "راور",
        "name_en": "Ravar",
        "latitude": "31.26555556",
        "longitude": "56.80555556"
    },
    {
        "id": "254650882",
        "name_fa": "بهنمیر",
        "name_en": "Bahnemir",
        "latitude": "36.668333333333",
        "longitude": "52.761666666667"
    },
    {
        "id": "264534715",
        "name_fa": "طبس",
        "name_en": "Tabas",
        "latitude": "33.595833333333",
        "longitude": "56.924444444444"
    },
    {
        "id": "264538544",
        "name_fa": "فرخی",
        "name_en": "Farokhi",
        "latitude": "33.8447",
        "longitude": "54.9464"
    },
    {
        "id": "265555072",
        "name_fa": "قوچان",
        "name_en": "Quchan",
        "latitude": "37.106111111111",
        "longitude": "58.509444444444"
    },
    {
        "id": "266486268",
        "name_fa": "کنویست",
        "name_en": "Kenevist",
        "latitude": "36.29333333",
        "longitude": "59.82333333"
    },
    {
        "id": "268566060",
        "name_fa": "طالقان",
        "name_en": "Taleqan",
        "latitude": "36.174444444444",
        "longitude": "50.769166666667"
    },
    {
        "id": "274036022",
        "name_fa": "امیدیه",
        "name_en": "Omidieh",
        "latitude": "30.759722222222",
        "longitude": "49.705"
    },
    {
        "id": "280785801",
        "name_fa": "تربت جام",
        "name_en": "Torbat-e Jam",
        "latitude": "35.243888888889",
        "longitude": "60.6225"
    },
    {
        "id": "283421516",
        "name_fa": "طرقبه",
        "name_en": "Torghabeh",
        "latitude": "36.310277777778",
        "longitude": "59.373611111111"
    },
    {
        "id": "289057413",
        "name_fa": "هرمز",
        "name_en": "Hormuz",
        "latitude": "27.095",
        "longitude": "56.452777777778"
    },
    {
        "id": "291617177",
        "name_fa": "بریس",
        "name_en": "Beris",
        "latitude": "25.136944444444",
        "longitude": "61.190833333333"
    },
    {
        "id": "291618503",
        "name_fa": "چابهار",
        "name_en": "Chabahar",
        "latitude": "25.291944444444",
        "longitude": "60.643055555556"
    },
    {
        "id": "291621225",
        "name_fa": "کنارک",
        "name_en": "Konarak",
        "latitude": "25.360277777778",
        "longitude": "60.399444444444"
    },
    {
        "id": "295013244",
        "name_fa": "مهدی شهر",
        "name_en": "Mahdishahr",
        "latitude": "35.710833333333",
        "longitude": "53.353888888889"
    },
    {
        "id": "295013246",
        "name_fa": "شهمیرزاد",
        "name_en": "Shahmirzad",
        "latitude": "35.772777777778",
        "longitude": "53.328611111111"
    },
    {
        "id": "295013250",
        "name_fa": "درجزین",
        "name_en": "Darjazin",
        "latitude": "35.653611111111",
        "longitude": "53.337777777778"
    },
    {
        "id": "295926933",
        "name_fa": "بندر ترکمن",
        "name_en": "Bandar-e Torkaman",
        "latitude": "36.901111111111",
        "longitude": "54.071944444444"
    },
    {
        "id": "295929073",
        "name_fa": "گمیش‌تپه",
        "name_en": "Gumish Tappeh",
        "latitude": "37.071666666667",
        "longitude": "54.076666666667"
    },
    {
        "id": "297201895",
        "name_fa": "فاروج",
        "name_en": "Faruj",
        "latitude": "37.23111111",
        "longitude": "58.21888889"
    },
    {
        "id": "297201904",
        "name_fa": "شیروان",
        "name_en": "Shirvan",
        "latitude": "37.396666666667",
        "longitude": "57.929444444444"
    },
    {
        "id": "297202635",
        "name_fa": "آشخانه",
        "name_en": "Ashkhaneh",
        "latitude": "37.56138889",
        "longitude": "56.92111111"
    },
    {
        "id": "297203246",
        "name_fa": "مینودشت",
        "name_en": "Minudasht",
        "latitude": "37.22888889",
        "longitude": "55.37472222"
    },
    {
        "id": "297203309",
        "name_fa": "آزادشهر",
        "name_en": "Azadshahr",
        "latitude": "37.08694444",
        "longitude": "55.17388889"
    },
    {
        "id": "297684178",
        "name_fa": "میرجاوه",
        "name_en": "Mirjaveh",
        "latitude": "29",
        "longitude": "61.45"
    },
    {
        "id": "300854460",
        "name_fa": "بسطام",
        "name_en": "Bastam",
        "latitude": "36.485277777778",
        "longitude": "54.999722222222"
    },
    {
        "id": "300858233",
        "name_fa": "کیاسر",
        "name_en": "Kiasar",
        "latitude": "36.238055555556",
        "longitude": "53.541111111111"
    },
    {
        "id": "301192864",
        "name_fa": "داورزن",
        "name_en": "Davarzan",
        "latitude": "36.35166667",
        "longitude": "56.87833333"
    },
    {
        "id": "301198375",
        "name_fa": "میامی",
        "name_en": "Mayamey",
        "latitude": "36.410833333333",
        "longitude": "55.650277777778"
    },
    {
        "id": "301435357",
        "name_fa": "فریمان",
        "name_en": "Fariman",
        "latitude": "35.706944444444",
        "longitude": "59.85"
    },
    {
        "id": "303698653",
        "name_fa": "هشتپر تالش",
        "name_en": "Talesh",
        "latitude": "37.79916667",
        "longitude": "48.90527778"
    },
    {
        "id": "303698717",
        "name_fa": "رضوانشهر",
        "name_en": "Rezvanshahr",
        "latitude": "37.551111111111",
        "longitude": "49.139444444444"
    },
    {
        "id": "303848033",
        "name_fa": "آلاشت",
        "name_en": "Alasht",
        "latitude": "36.066666666667",
        "longitude": "52.837222222222"
    },
    {
        "id": "304568191",
        "name_fa": "بادرود",
        "name_en": "Badrud",
        "latitude": "33.690833333333",
        "longitude": "52.008611111111"
    },
    {
        "id": "304669513",
        "name_fa": "گرمسار",
        "name_en": "Garmsar",
        "latitude": "35.216666666667",
        "longitude": "52.333333333333"
    },
    {
        "id": "304670156",
        "name_fa": "ایوان کِی",
        "name_en": "Eyvane kay",
        "latitude": "35.34333333",
        "longitude": "52.0675"
    },
    {
        "id": "307988177",
        "name_fa": "دیهوک",
        "name_en": "Deyhuk",
        "latitude": "33.293888888889",
        "longitude": "57.518611111111"
    },
    {
        "id": "311501364",
        "name_fa": "خانه زنیان",
        "name_en": "Khaneh Zenyan",
        "latitude": "29.669908995504",
        "longitude": "52.148165433585"
    },
    {
        "id": "312441256",
        "name_fa": "آران و بیدگل",
        "name_en": "Aran va Bidgol",
        "latitude": "34.0575",
        "longitude": "51.482777777778"
    },
    {
        "id": "314341491",
        "name_fa": "تایباد",
        "name_en": "Taybad",
        "latitude": "34.74",
        "longitude": "60.775555555556"
    },
    {
        "id": "314342394",
        "name_fa": "کاریز",
        "name_en": "Kariz",
        "latitude": "34.81277778",
        "longitude": "60.82416667"
    },
    {
        "id": "338947993",
        "name_fa": "نکا",
        "name_en": "Neka",
        "latitude": "36.650833333333",
        "longitude": "53.299166666667"
    },
    {
        "id": "338948436",
        "name_fa": "بهشهر",
        "name_en": "Behshahr",
        "latitude": "36.692222222222",
        "longitude": "53.5525"
    },
    {
        "id": "338974171",
        "name_fa": "عسلویه",
        "name_en": "Asalouyeh",
        "latitude": "27.476111111111",
        "longitude": "52.6075"
    },
    {
        "id": "344546541",
        "name_fa": "فیض آباد",
        "name_en": "Feyzabad",
        "latitude": "35.018888888889",
        "longitude": "58.783333333333"
    },
    {
        "id": "344548866",
        "name_fa": "عبدل آباد",
        "name_en": "Abdolabad",
        "latitude": "35.06444444",
        "longitude": "58.78833333"
    },
    {
        "id": "344549839",
        "name_fa": "شادمهر",
        "name_en": "Shadmehr",
        "latitude": "35.17277778",
        "longitude": "59.03638889"
    },
    {
        "id": "344559674",
        "name_fa": "کبودرآهنگ",
        "name_en": "Kabudar Ahang",
        "latitude": "35.208333333333",
        "longitude": "48.723888888889"
    },
    {
        "id": "344623598",
        "name_fa": "جیرفت",
        "name_en": "Jiroft",
        "latitude": "28.678055555556",
        "longitude": "57.740555555556"
    },
    {
        "id": "344628216",
        "name_fa": "لار",
        "name_en": "Lar",
        "latitude": "27.683333333333",
        "longitude": "54.341666666667"
    },
    {
        "id": "344629434",
        "name_fa": "گراش",
        "name_en": "Gerash",
        "latitude": "27.669722222222",
        "longitude": "54.135833333333"
    },
    {
        "id": "344631880",
        "name_fa": "بندر امام خمینی",
        "name_en": "Bandar-e Emam Khomeyni",
        "latitude": "30.549112105581",
        "longitude": "49.058618270957"
    },
    {
        "id": "344650643",
        "name_fa": "یاسوج",
        "name_en": "Yasuj",
        "latitude": "30.666666666667",
        "longitude": "51.583333333333"
    },
    {
        "id": "347026180",
        "name_fa": "راسک",
        "name_en": "Rasak",
        "latitude": "26.23694444",
        "longitude": "61.39888889"
    },
    {
        "id": "347029888",
        "name_fa": "ایرانشهر",
        "name_en": "Iranshahr",
        "latitude": "27.2025",
        "longitude": "60.684722222222"
    },
    {
        "id": "348295352",
        "name_fa": "اسلام آباد غرب",
        "name_en": "Eslamabad-e Gharb",
        "latitude": "34.108888888889",
        "longitude": "46.53"
    },
    {
        "id": "348300869",
        "name_fa": "اسدآباد",
        "name_en": "Asadabad",
        "latitude": "34.7825",
        "longitude": "48.12"
    },
    {
        "id": "353119638",
        "name_fa": "بندر جاسک",
        "name_en": "Bandar-e Jask",
        "latitude": "25.645277777778",
        "longitude": "57.775555555556"
    },
    {
        "id": "365325113",
        "name_fa": "سورمق",
        "name_en": "Surmaq",
        "latitude": "31.0358",
        "longitude": "52.8403"
    },
    {
        "id": "387793424",
        "name_fa": "طالخونچه",
        "name_en": "Talkhuncheh",
        "latitude": "32.262777777778",
        "longitude": "51.562222222222"
    },
    {
        "id": "403875292",
        "name_fa": "خمین",
        "name_en": "Khomein",
        "latitude": "33.638888888889",
        "longitude": "50.08"
    },
    {
        "id": "403877769",
        "name_fa": "ازنا",
        "name_en": "Azna",
        "latitude": "33.453888888889",
        "longitude": "49.455"
    },
    {
        "id": "409193566",
        "name_fa": "ایوان",
        "name_en": "Eywan",
        "latitude": "33.827222222222",
        "longitude": "46.309722222222"
    },
    {
        "id": "415872179",
        "name_fa": "بوئین زهرا",
        "name_en": "Boinzahra",
        "latitude": "35.76694444",
        "longitude": "50.05777778"
    },
    {
        "id": "415878485",
        "name_fa": "دلیجان",
        "name_en": "Delijan",
        "latitude": "33.990555555556",
        "longitude": "50.683888888889"
    },
    {
        "id": "425017555",
        "name_fa": "میلاجرد",
        "name_en": "Milajerd",
        "latitude": "34.621944444444",
        "longitude": "49.2075"
    },
    {
        "id": "478908972",
        "name_fa": "توس",
        "name_en": "Toos",
        "latitude": "36.486138888889",
        "longitude": "59.517555555556"
    },
    {
        "id": "479092054",
        "name_fa": "بزنگان",
        "name_en": "Bazangan",
        "latitude": "36.295833",
        "longitude": "60.431389"
    },
    {
        "id": "479109268",
        "name_fa": "چناران",
        "name_en": "Chenaran",
        "latitude": "36.645555555556",
        "longitude": "59.121111111111"
    },
    {
        "id": "479109269",
        "name_fa": "درگز",
        "name_en": "Dargaz",
        "latitude": "37.444444444444",
        "longitude": "59.108055555556"
    },
    {
        "id": "479109270",
        "name_fa": "لطف آباد",
        "name_en": "Lotfabad",
        "latitude": "37.51805556",
        "longitude": "59.34083333"
    },
    {
        "id": "480459383",
        "name_fa": "نودشه",
        "name_en": "Nowdeshah",
        "latitude": "35.180555555556",
        "longitude": "46.254166666667"
    },
    {
        "id": "480459390",
        "name_fa": "پاوه",
        "name_en": "Paveh",
        "latitude": "35.043333333333",
        "longitude": "46.356388888889"
    },
    {
        "id": "481385529",
        "name_fa": "ابرکوه",
        "name_en": "Abarkuh",
        "latitude": "31.128888888889",
        "longitude": "53.282222222222"
    },
    {
        "id": "481391119",
        "name_fa": "صفاشهر",
        "name_en": "Safashahr",
        "latitude": "30.613055555556",
        "longitude": "53.195277777778"
    },
    {
        "id": "481391775",
        "name_fa": "قادرآباد",
        "name_en": "Qaderabad",
        "latitude": "30.277777777778",
        "longitude": "53.265277777778"
    },
    {
        "id": "510139522",
        "name_fa": "دامغان",
        "name_en": "Damghan",
        "latitude": "36.168055555556",
        "longitude": "54.348055555556"
    },
    {
        "id": "517828842",
        "name_fa": "مزرج",
        "name_en": "Mazerj",
        "latitude": "37.151111",
        "longitude": "58.555833"
    },
    {
        "id": "529657658",
        "name_fa": "گناباد",
        "name_en": "Gonabad",
        "latitude": "34.352777777778",
        "longitude": "58.683611111111"
    },
    {
        "id": "529660378",
        "name_fa": "بجستان",
        "name_en": "Bajestan",
        "latitude": "34.516388888889",
        "longitude": "58.184444444444"
    },
    {
        "id": "529959711",
        "name_fa": "کرد کوی",
        "name_en": "Kord Kuy",
        "latitude": "36.793055555556",
        "longitude": "54.112222222222"
    },
    {
        "id": "530787382",
        "name_fa": "علی آباد کتول",
        "name_en": "Aliabad-e Katul",
        "latitude": "36.908333333333",
        "longitude": "54.868888888889"
    },
    {
        "id": "535870221",
        "name_fa": "سرعین",
        "name_en": "Sareyn",
        "latitude": "38.151388888889",
        "longitude": "48.070833333333"
    },
    {
        "id": "587748039",
        "name_fa": "کلات نادری",
        "name_en": "Kalat",
        "latitude": "36.995277777778",
        "longitude": "59.760833333333"
    },
    {
        "id": "593880695",
        "name_fa": "سلطان آباد",
        "name_en": "Soltanabad",
        "latitude": "36.403611111111",
        "longitude": "58.038888888889"
    },
    {
        "id": "595102404",
        "name_fa": "گلبهار",
        "name_en": "Golbahar",
        "latitude": "36.571111111111",
        "longitude": "59.194722222222"
    },
    {
        "id": "598102341",
        "name_fa": "سردشت",
        "name_en": "Sardasht",
        "latitude": "36.155277777778",
        "longitude": "45.478888888889"
    },
    {
        "id": "602526664",
        "name_fa": "خاش",
        "name_en": "Khash",
        "latitude": "28.221111111111",
        "longitude": "61.215833333333"
    },
    {
        "id": "602635564",
        "name_fa": "بمپور",
        "name_en": "Bampur",
        "latitude": "27.194444444444",
        "longitude": "60.455833333333"
    },
    {
        "id": "606375748",
        "name_fa": "کلیبر",
        "name_en": "Kaleybar",
        "latitude": "38.866666666667",
        "longitude": "47.033333333333"
    },
    {
        "id": "608025870",
        "name_fa": "رضوانشهر",
        "name_en": "Rezvanshahr",
        "latitude": "32.70555556",
        "longitude": "51.10388889"
    },
    {
        "id": "614482510",
        "name_fa": "اسفراین",
        "name_en": "Esfarayen",
        "latitude": "37.076388888889",
        "longitude": "57.51"
    },
    {
        "id": "625959605",
        "name_fa": "خارک",
        "name_en": "Kharg",
        "latitude": "29.261388888889",
        "longitude": "50.330555555556"
    },
    {
        "id": "666772583",
        "name_fa": "تاکستان",
        "name_en": "Takestan",
        "latitude": "36.069444444444",
        "longitude": "49.695833333333"
    },
    {
        "id": "668711965",
        "name_fa": "شاندیز",
        "name_en": "Shandiz",
        "latitude": "36.39527778",
        "longitude": "59.29638889"
    },
    {
        "id": "679220398",
        "name_fa": "رباط سنگ",
        "name_en": "Robat Sang",
        "latitude": "35.54583333",
        "longitude": "59.19361111"
    },
    {
        "id": "681298011",
        "name_fa": "کاشمر",
        "name_en": "Kashmar",
        "latitude": "35.238333333333",
        "longitude": "58.465555555556"
    },
    {
        "id": "681308991",
        "name_fa": "خضری دشت بیاض",
        "name_en": "Khezri Dasht Beyaz",
        "latitude": "34.02277778",
        "longitude": "58.81277778"
    },
    {
        "id": "681308992",
        "name_fa": "بیدخت",
        "name_en": "Bidokht",
        "latitude": "34.347222222222",
        "longitude": "58.757222222222"
    },
    {
        "id": "689323875",
        "name_fa": "انابد",
        "name_en": "Anabad",
        "latitude": "35.25194444",
        "longitude": "57.81222222"
    },
    {
        "id": "689323994",
        "name_fa": "بردسکن",
        "name_en": "Bardaskan",
        "latitude": "35.263055555556",
        "longitude": "57.972222222222"
    },
    {
        "id": "689324097",
        "name_fa": "خلیل آباد",
        "name_en": "Khalil Abad",
        "latitude": "35.253888888889",
        "longitude": "58.285555555556"
    },
    {
        "id": "689424437",
        "name_fa": "رشتخوار",
        "name_en": "Roshtkhar",
        "latitude": "34.975",
        "longitude": "59.624722222222"
    },
    {
        "id": "689424641",
        "name_fa": "سلامی",
        "name_en": "Salami",
        "latitude": "34.743888888889",
        "longitude": "59.975555555556"
    },
    {
        "id": "689424695",
        "name_fa": "خواف",
        "name_en": "Khaf",
        "latitude": "34.576388888889",
        "longitude": "60.140833333333"
    },
    {
        "id": "689454604",
        "name_fa": "سنگان",
        "name_en": "Sangan",
        "latitude": "34.39861111",
        "longitude": "60.25805556"
    },
    {
        "id": "689454657",
        "name_fa": "نشتیفان",
        "name_en": "Nashtifan",
        "latitude": "34.43444444",
        "longitude": "60.1775"
    },
    {
        "id": "689462984",
        "name_fa": "باخرز",
        "name_en": "Bakharz",
        "latitude": "34.8375",
        "longitude": "60.30222222"
    },
    {
        "id": "689524779",
        "name_fa": "نهبندان",
        "name_en": "Nehbandan",
        "latitude": "31.541944444444",
        "longitude": "60.036388888889"
    },
    {
        "id": "689524917",
        "name_fa": "سربیشه",
        "name_en": "Sarbisheh",
        "latitude": "32.57555556",
        "longitude": "59.79833333"
    },
    {
        "id": "689542318",
        "name_fa": "اسفدن",
        "name_en": "Esfeden",
        "latitude": "33.645",
        "longitude": "59.77805556"
    },
    {
        "id": "689542346",
        "name_fa": "حاجی آباد",
        "name_en": "Hajjiabad",
        "latitude": "33.605",
        "longitude": "59.99333333"
    },
    {
        "id": "690428807",
        "name_fa": "جاجرم",
        "name_en": "Jajrom",
        "latitude": "36.954722",
        "longitude": "56.373333"
    },
    {
        "id": "690428856",
        "name_fa": "گرمه",
        "name_en": "Garmeh",
        "latitude": "36.986944444444",
        "longitude": "56.289444444444"
    },
    {
        "id": "703874790",
        "name_fa": "برازجان",
        "name_en": "Borazjan",
        "latitude": "29.27",
        "longitude": "51.218888888889"
    },
    {
        "id": "703874975",
        "name_fa": "دالکی",
        "name_en": "Dalaki",
        "latitude": "29.429444444444",
        "longitude": "51.293055555556"
    },
    {
        "id": "704278453",
        "name_fa": "بندر گناوه",
        "name_en": "Bandar Ganaveh",
        "latitude": "29.584722222222",
        "longitude": "50.516944444444"
    },
    {
        "id": "704596658",
        "name_fa": "بندر دیلم",
        "name_en": "Bandar Deylam",
        "latitude": "30.054166666667",
        "longitude": "50.158888888889"
    },
    {
        "id": "705048454",
        "name_fa": "بندرگز",
        "name_en": "Bandar-e Gaz",
        "latitude": "36.774166666667",
        "longitude": "53.948055555556"
    },
    {
        "id": "724197171",
        "name_fa": "مهران",
        "name_en": "Mehran",
        "latitude": "33.122222222222",
        "longitude": "46.164722222222"
    },
    {
        "id": "724197178",
        "name_fa": "صالح آباد",
        "name_en": "Saleh Abad",
        "latitude": "33.469722222222",
        "longitude": "46.188055555556"
    },
    {
        "id": "724197204",
        "name_fa": "ارکواز",
        "name_en": "Arkvaz",
        "latitude": "33.382777777778",
        "longitude": "46.598333333333"
    },
    {
        "id": "724215843",
        "name_fa": "لالجین",
        "name_en": "Lalejin",
        "latitude": "34.974444444444",
        "longitude": "48.475555555556"
    },
    {
        "id": "724215847",
        "name_fa": "بهار",
        "name_en": "Bahar",
        "latitude": "34.907222222222",
        "longitude": "48.441388888889"
    },
    {
        "id": "725213029",
        "name_fa": "رامیان",
        "name_en": "Ramian",
        "latitude": "37.01611111",
        "longitude": "55.14111111"
    },
    {
        "id": "725213051",
        "name_fa": "گالیکش",
        "name_en": "Galikash",
        "latitude": "37.27194444",
        "longitude": "55.4325"
    },
    {
        "id": "727630143",
        "name_fa": "گلوگاه",
        "name_en": "Galugah",
        "latitude": "36.72722222",
        "longitude": "53.80888889"
    },
    {
        "id": "729167545",
        "name_fa": "کلاردشت",
        "name_en": "Kelardasht",
        "latitude": "36.516666666667",
        "longitude": "51.166666666667"
    },
    {
        "id": "729167674",
        "name_fa": "صومعه سرا",
        "name_en": "Sowme'eh Sara",
        "latitude": "37.31166667",
        "longitude": "49.32194444"
    },
    {
        "id": "729167711",
        "name_fa": "ایزدشهر",
        "name_en": "Izadshahr",
        "latitude": "36.592777777778",
        "longitude": "52.113611111111"
    },
    {
        "id": "729167774",
        "name_fa": "فریدونکنار",
        "name_en": "Fereydunkenar",
        "latitude": "36.685",
        "longitude": "52.519166666667"
    },
    {
        "id": "729167816",
        "name_fa": "کلاچای",
        "name_en": "Kala Chay",
        "latitude": "37.07888889",
        "longitude": "50.39527778"
    },
    {
        "id": "729167822",
        "name_fa": "کیاکلا",
        "name_en": "Kiakola",
        "latitude": "36.580277777778",
        "longitude": "52.815277777778"
    },
    {
        "id": "729167828",
        "name_fa": "کتالم و سادات شهر",
        "name_en": "Ketalem and Sadat Shahr",
        "latitude": "36.888888888889",
        "longitude": "50.696388888889"
    },
    {
        "id": "729167836",
        "name_fa": "خرم آباد",
        "name_en": "Khorramabad",
        "latitude": "36.782777777778",
        "longitude": "50.872222222222"
    },
    {
        "id": "729167849",
        "name_fa": "امیرکلا",
        "name_en": "Amirkola",
        "latitude": "36.596666666667",
        "longitude": "52.665833333333"
    },
    {
        "id": "729167975",
        "name_fa": "سیاهکل",
        "name_en": "Siahkal",
        "latitude": "37.15277778",
        "longitude": "49.87083333"
    },
    {
        "id": "729168061",
        "name_fa": "تنکابن",
        "name_en": "Tonekabon",
        "latitude": "36.816388888889",
        "longitude": "50.873888888889"
    },
    {
        "id": "729168093",
        "name_fa": "سرخرود",
        "name_en": "Sorkhrud",
        "latitude": "36.666667",
        "longitude": "52.45"
    },
    {
        "id": "729168107",
        "name_fa": "رودبنه",
        "name_en": "Rudboneh",
        "latitude": "37.25472222",
        "longitude": "50.00277778"
    },
    {
        "id": "729168184",
        "name_fa": "فومن",
        "name_en": "Fuman",
        "latitude": "37.223888888889",
        "longitude": "49.3125"
    },
    {
        "id": "729168197",
        "name_fa": "رامسر",
        "name_en": "Ramsar",
        "latitude": "36.918055555556",
        "longitude": "50.648055555556"
    },
    {
        "id": "729168345",
        "name_fa": "ماسوله",
        "name_en": "Masouleh",
        "latitude": "37.155",
        "longitude": "48.989722222222"
    },
    {
        "id": "729168407",
        "name_fa": "واجارگاه",
        "name_en": "Vajargah",
        "latitude": "37.0408",
        "longitude": "50.4086"
    },
    {
        "id": "729168422",
        "name_fa": "چابکسر",
        "name_en": "Chaboksar",
        "latitude": "36.97361111",
        "longitude": "50.57"
    },
    {
        "id": "732046755",
        "name_fa": "گلباف",
        "name_en": "Golbaf",
        "latitude": "29.885",
        "longitude": "57.73055556"
    },
    {
        "id": "732047429",
        "name_fa": "شهداد",
        "name_en": "Shahdad",
        "latitude": "30.4175",
        "longitude": "57.706666666667"
    },
    {
        "id": "747346242",
        "name_fa": "مرزداران",
        "name_en": "Mazdavand",
        "latitude": "36.15611111",
        "longitude": "60.53083333"
    },
    {
        "id": "790126834",
        "name_fa": "رامهرمز",
        "name_en": "Ramhormoz",
        "latitude": "31.28",
        "longitude": "49.603611111111"
    },
    {
        "id": "790126920",
        "name_fa": "جایزان",
        "name_en": "Jayezan",
        "latitude": "30.883333",
        "longitude": "49.85"
    },
    {
        "id": "790127519",
        "name_fa": "آغاجاری",
        "name_en": "Aghajari",
        "latitude": "30.700555555556",
        "longitude": "49.831388888889"
    },
    {
        "id": "791254167",
        "name_fa": "هشتگرد",
        "name_en": "Hashtgerd",
        "latitude": "35.961944444444",
        "longitude": "50.68"
    },
    {
        "id": "791723493",
        "name_fa": "فیروزآباد",
        "name_en": "Firuzabad",
        "latitude": "28.843611111111",
        "longitude": "52.570555555556"
    },
    {
        "id": "792486386",
        "name_fa": "سیراف",
        "name_en": "Bandar Siraf",
        "latitude": "27.665833333333",
        "longitude": "52.346111111111"
    },
    {
        "id": "792528283",
        "name_fa": "جم",
        "name_en": "Jam",
        "latitude": "27.828055555556",
        "longitude": "52.325277777778"
    },
    {
        "id": "793489828",
        "name_fa": "تازه شهر",
        "name_en": "Tazeh Shahr",
        "latitude": "38.175555555556",
        "longitude": "44.691944444444"
    },
    {
        "id": "794158462",
        "name_fa": "خنج",
        "name_en": "Khonj",
        "latitude": "27.883333333333",
        "longitude": "53.433333333333"
    },
    {
        "id": "795056587",
        "name_fa": "چاپشلو",
        "name_en": "Chapeshlu",
        "latitude": "37.35166667",
        "longitude": "59.07666667"
    },
    {
        "id": "796757270",
        "name_fa": "بایگ",
        "name_en": "Bayg",
        "latitude": "35.37583333",
        "longitude": "59.03777778"
    },
    {
        "id": "796757274",
        "name_fa": "کدکن",
        "name_en": "Kadkan",
        "latitude": "35.58472222",
        "longitude": "58.87805556"
    },
    {
        "id": "804014875",
        "name_fa": "بهمن",
        "name_en": "Bahman",
        "latitude": "31.194166666667",
        "longitude": "52.483888888889"
    },
    {
        "id": "804014883",
        "name_fa": "صغاد",
        "name_en": "Soqad",
        "latitude": "31.191388888889",
        "longitude": "52.516388888889"
    },
    {
        "id": "806612685",
        "name_fa": "مصیری",
        "name_en": "Masiri",
        "latitude": "30.245833333333",
        "longitude": "51.522222222222"
    },
    {
        "id": "806623086",
        "name_fa": "نورآباد",
        "name_en": "Nurabad Mamasani",
        "latitude": "30.113888888889",
        "longitude": "51.521666666667"
    },
    {
        "id": "806633638",
        "name_fa": "قائمیه",
        "name_en": "Qaemiyeh",
        "latitude": "29.851666666667",
        "longitude": "51.586666666667"
    },
    {
        "id": "806637044",
        "name_fa": "کنارتخته",
        "name_en": "Konartakhteh",
        "latitude": "29.535555555556",
        "longitude": "51.395833333333"
    },
    {
        "id": "806920354",
        "name_fa": "الوند",
        "name_en": "Alvand",
        "latitude": "36.18916702",
        "longitude": "50.06416702"
    },
    {
        "id": "806942842",
        "name_fa": "اشتهارد",
        "name_en": "Eshtehard",
        "latitude": "35.72555556",
        "longitude": "50.36611111"
    },
    {
        "id": "814909332",
        "name_fa": "سعادت شهر",
        "name_en": "Saadat Shahr",
        "latitude": "30.078611111111",
        "longitude": "53.139722222222"
    },
    {
        "id": "814918848",
        "name_fa": "ارسنجان",
        "name_en": "Arsanjan",
        "latitude": "29.912222222222",
        "longitude": "53.308333333333"
    },
    {
        "id": "814924038",
        "name_fa": "آباده طشک",
        "name_en": "Abadeh Tashk",
        "latitude": "29.810833333333",
        "longitude": "53.7275"
    },
    {
        "id": "818944615",
        "name_fa": "کازرون",
        "name_en": "Kazerun",
        "latitude": "29.616666666667",
        "longitude": "51.65"
    },
    {
        "id": "818955575",
        "name_fa": "والاشهر",
        "name_en": "Baladeh",
        "latitude": "29.28666667",
        "longitude": "51.94222222"
    },
    {
        "id": "818961986",
        "name_fa": "فراشبند",
        "name_en": "Farashband",
        "latitude": "28.871388888889",
        "longitude": "52.091666666667"
    },
    {
        "id": "819610755",
        "name_fa": "مینوشهر",
        "name_en": "Minooshahr",
        "latitude": "30.35",
        "longitude": "48.21666667"
    },
    {
        "id": "819610765",
        "name_fa": "سوسنگرد",
        "name_en": "Susangerd",
        "latitude": "31.560833333333",
        "longitude": "48.183055555556"
    },
    {
        "id": "819610782",
        "name_fa": "زاغه",
        "name_en": "Zagheh",
        "latitude": "33.4989",
        "longitude": "48.7086"
    },
    {
        "id": "819610800",
        "name_fa": "الیگودرز",
        "name_en": "Aligudarz",
        "latitude": "33.400555555556",
        "longitude": "49.694722222222"
    },
    {
        "id": "819610816",
        "name_fa": "کرند غرب",
        "name_en": "Kerend-e Gharb",
        "latitude": "34.284166666667",
        "longitude": "46.242222222222"
    },
    {
        "id": "819610827",
        "name_fa": "بندر شرفخانه",
        "name_en": "Sharafkhaneh",
        "latitude": "38.171666666667",
        "longitude": "45.481944444444"
    },
    {
        "id": "819610830",
        "name_fa": "شادگان",
        "name_en": "Shadegan",
        "latitude": "30.649722222222",
        "longitude": "48.664722222222"
    },
    {
        "id": "819610833",
        "name_fa": "قصر شیرین",
        "name_en": "Qasr-e Shirin",
        "latitude": "34.515555555556",
        "longitude": "45.579166666667"
    },
    {
        "id": "819610841",
        "name_fa": "هفتکل",
        "name_en": "Haftkel",
        "latitude": "31.446944444444",
        "longitude": "49.529444444444"
    },
    {
        "id": "819610844",
        "name_fa": "شاهین دژ",
        "name_en": "Shahindezh",
        "latitude": "36.679166666667",
        "longitude": "46.566666666667"
    },
    {
        "id": "819610852",
        "name_fa": "خامنه",
        "name_en": "Khamaneh",
        "latitude": "38.193333333333",
        "longitude": "45.630833333333"
    },
    {
        "id": "819610854",
        "name_fa": "هویزه",
        "name_en": "Hoveyzeh",
        "latitude": "31.461944444444",
        "longitude": "48.073888888889"
    },
    {
        "id": "819610866",
        "name_fa": "بناب جدید",
        "name_en": "Bonab-e-Jadid",
        "latitude": "38.42833333",
        "longitude": "45.90722222"
    },
    {
        "id": "819610871",
        "name_fa": "صحنه",
        "name_en": "Sahneh",
        "latitude": "34.481388888889",
        "longitude": "47.690833333333"
    },
    {
        "id": "819610872",
        "name_fa": "حمیدیه",
        "name_en": "Hamidieh",
        "latitude": "31.485",
        "longitude": "48.435277777778"
    },
    {
        "id": "819610883",
        "name_fa": "الشتر",
        "name_en": "Aleshtar",
        "latitude": "33.863055555556",
        "longitude": "48.261666666667"
    },
    {
        "id": "819610896",
        "name_fa": "پل دختر",
        "name_en": "Pol Dokhtar",
        "latitude": "33.153611111111",
        "longitude": "47.713611111111"
    },
    {
        "id": "819610900",
        "name_fa": "بیستون",
        "name_en": "Bisotun",
        "latitude": "34.399722222222",
        "longitude": "47.445"
    },
    {
        "id": "819610915",
        "name_fa": "بستان‌آباد",
        "name_en": "Bostan",
        "latitude": "31.721666666667",
        "longitude": "47.986666666667"
    },
    {
        "id": "819610926",
        "name_fa": "رباط",
        "name_en": "Robat",
        "latitude": "34.26833333",
        "longitude": "46.80388889"
    },
    {
        "id": "819610933",
        "name_fa": "سومار",
        "name_en": "Sumar",
        "latitude": "33.8775",
        "longitude": "45.6417"
    },
    {
        "id": "819610937",
        "name_fa": "مریوان",
        "name_en": "Marivan",
        "latitude": "35.526944444444",
        "longitude": "46.176111111111"
    },
    {
        "id": "819610941",
        "name_fa": "کوهدشت",
        "name_en": "Kuhdasht",
        "latitude": "33.53",
        "longitude": "47.6"
    },
    {
        "id": "819610948",
        "name_fa": "اروندکنار",
        "name_en": "Arwandkenar",
        "latitude": "29.978888888889",
        "longitude": "48.520555555556"
    },
    {
        "id": "819610949",
        "name_fa": "رفیع",
        "name_en": "Rafi",
        "latitude": "31.59583333",
        "longitude": "47.89472222"
    },
    {
        "id": "819610953",
        "name_fa": "شبستر",
        "name_en": "Shabistar",
        "latitude": "38.180277777778",
        "longitude": "45.702777777778"
    },
    {
        "id": "820185494",
        "name_fa": "خورموج",
        "name_en": "Khormoj",
        "latitude": "28.654166666667",
        "longitude": "51.38"
    },
    {
        "id": "820185524",
        "name_fa": "کاکی",
        "name_en": "Kaki",
        "latitude": "28.338611111111",
        "longitude": "51.523611111111"
    },
    {
        "id": "820186803",
        "name_fa": "بندر دیر",
        "name_en": "Bandar Dayyer",
        "latitude": "27.84",
        "longitude": "51.937777777778"
    },
    {
        "id": "820252454",
        "name_fa": "بیدستان",
        "name_en": "Bidestan",
        "latitude": "36.230833333333",
        "longitude": "50.123611111111"
    },
    {
        "id": "820252456",
        "name_fa": "صالح آباد",
        "name_en": "Salehabad",
        "latitude": "34.923611111111",
        "longitude": "48.3425"
    },
    {
        "id": "820252465",
        "name_fa": "سرکان",
        "name_en": "Serkan",
        "latitude": "34.601666666667",
        "longitude": "48.450555555556"
    },
    {
        "id": "820252470",
        "name_fa": "تویسرکان",
        "name_en": "Tuyserkan",
        "latitude": "34.551111111111",
        "longitude": "48.443611111111"
    },
    {
        "id": "820252471",
        "name_fa": "سامن",
        "name_en": "Samen",
        "latitude": "34.20916667",
        "longitude": "48.70583333"
    },
    {
        "id": "820252478",
        "name_fa": "رزن",
        "name_en": "Razan",
        "latitude": "35.386388888889",
        "longitude": "49.033611111111"
    },
    {
        "id": "820252479",
        "name_fa": "ابهر",
        "name_en": "Abhar",
        "latitude": "36.146666666667",
        "longitude": "49.218055555556"
    },
    {
        "id": "820252480",
        "name_fa": "گرماب",
        "name_en": "Garmab",
        "latitude": "35.84861111",
        "longitude": "48.19527778"
    },
    {
        "id": "820252486",
        "name_fa": "هیدج",
        "name_en": "Hidaj",
        "latitude": "36.249722222222",
        "longitude": "49.127222222222"
    },
    {
        "id": "820252492",
        "name_fa": "زرین آباد",
        "name_en": "Zarrinabad",
        "latitude": "36.425",
        "longitude": "48.281944444444"
    },
    {
        "id": "820252499",
        "name_fa": "خرمدشت",
        "name_en": "Khorramdasht",
        "latitude": "35.924722222222",
        "longitude": "49.515833333333"
    },
    {
        "id": "820252504",
        "name_fa": "آوج",
        "name_en": "Avaj",
        "latitude": "35.578888888889",
        "longitude": "49.224166666667"
    },
    {
        "id": "820252512",
        "name_fa": "دندی",
        "name_en": "Dandi",
        "latitude": "36.54944444",
        "longitude": "47.62638889"
    },
    {
        "id": "820252518",
        "name_fa": "نهاوند",
        "name_en": "Nahavand",
        "latitude": "34.188333333333",
        "longitude": "48.376944444444"
    },
    {
        "id": "820252525",
        "name_fa": "فیروزان",
        "name_en": "Firoozan",
        "latitude": "34.27861111",
        "longitude": "48.24"
    },
    {
        "id": "820252538",
        "name_fa": "خرمدره",
        "name_en": "Khorramdarreh",
        "latitude": "36.203055555556",
        "longitude": "49.186944444444"
    },
    {
        "id": "820252544",
        "name_fa": "زنگنه",
        "name_en": "Zangeneh",
        "latitude": "34.1547",
        "longitude": "49.0108"
    },
    {
        "id": "820309170",
        "name_fa": "بزمان",
        "name_en": "Bazman",
        "latitude": "27.85638889",
        "longitude": "60.18055556"
    },
    {
        "id": "820309178",
        "name_fa": "سرباز",
        "name_en": "Sarbaz",
        "latitude": "26.630833333333",
        "longitude": "61.256388888889"
    },
    {
        "id": "820309185",
        "name_fa": "گلزار",
        "name_en": "Golzar",
        "latitude": "29.71138889",
        "longitude": "57.03944444"
    },
    {
        "id": "820309189",
        "name_fa": "فاریاب",
        "name_en": "Faryab",
        "latitude": "28.084722",
        "longitude": "57.220278"
    },
    {
        "id": "820309193",
        "name_fa": "نجف شهر",
        "name_en": "Najafshahr",
        "latitude": "29.38333333",
        "longitude": "55.71722222"
    },
    {
        "id": "820309205",
        "name_fa": "اسپکه",
        "name_en": "Espakeh",
        "latitude": "26.84",
        "longitude": "60.17305556"
    },
    {
        "id": "820309211",
        "name_fa": "بروات",
        "name_en": "Baravat",
        "latitude": "29.06638889",
        "longitude": "58.40472222"
    },
    {
        "id": "820309219",
        "name_fa": "سراوان",
        "name_en": "Saravan",
        "latitude": "27.370833333333",
        "longitude": "62.334166666667"
    },
    {
        "id": "820309227",
        "name_fa": "نیک‌شهر",
        "name_en": "Nik Shahr",
        "latitude": "26.22583333",
        "longitude": "60.21416667"
    },
    {
        "id": "820309230",
        "name_fa": "محمدآباد",
        "name_en": "Mohammadabad",
        "latitude": "30.88555556",
        "longitude": "61.46361111"
    },
    {
        "id": "820309235",
        "name_fa": "زیدآباد",
        "name_en": "Zeidabad",
        "latitude": "29.6",
        "longitude": "55.5369"
    },
    {
        "id": "820309249",
        "name_fa": "بنجار",
        "name_en": "Bonjar",
        "latitude": "31.04277778",
        "longitude": "61.56833333"
    },
    {
        "id": "820309254",
        "name_fa": "نرماشیر",
        "name_en": "Narmashir",
        "latitude": "28.95111111",
        "longitude": "58.69527778"
    },
    {
        "id": "820309260",
        "name_fa": "سوران",
        "name_en": "Suran",
        "latitude": "27.2856",
        "longitude": "61.9964"
    },
    {
        "id": "820309271",
        "name_fa": "دوست‌محمد",
        "name_en": "Dust Mohammad",
        "latitude": "31.14472222",
        "longitude": "61.7925"
    },
    {
        "id": "820309272",
        "name_fa": "ادیمی",
        "name_en": "Adimi",
        "latitude": "31.10916667",
        "longitude": "61.41527778"
    },
    {
        "id": "820309285",
        "name_fa": "پیشین",
        "name_en": "Pishin",
        "latitude": "26.079444444444",
        "longitude": "61.753888888889"
    },
    {
        "id": "820309292",
        "name_fa": "نظام شهر",
        "name_en": "NezamShahr",
        "latitude": "28.91611111",
        "longitude": "58.55027778"
    },
    {
        "id": "820316673",
        "name_fa": "جوپار",
        "name_en": "Jupar",
        "latitude": "30.06555556",
        "longitude": "57.115"
    },
    {
        "id": "820345099",
        "name_fa": "مود",
        "name_en": "Mud",
        "latitude": "32.708055555556",
        "longitude": "59.523333333333"
    },
    {
        "id": "820345109",
        "name_fa": "خوسف",
        "name_en": "Khusf",
        "latitude": "32.780833333333",
        "longitude": "58.890555555556"
    },
    {
        "id": "820345118",
        "name_fa": "مس سرچشمه",
        "name_en": "Mes-e Sarcheshmeh",
        "latitude": "29.99277778",
        "longitude": "55.795"
    },
    {
        "id": "820345120",
        "name_fa": "اسدیه",
        "name_en": "Asadiyeh",
        "latitude": "32.94277778",
        "longitude": "59.72"
    },
    {
        "id": "820345131",
        "name_fa": "بهرمان",
        "name_en": "Bahreman",
        "latitude": "30.89833333",
        "longitude": "55.72138889"
    },
    {
        "id": "820345132",
        "name_fa": "سه قلعه",
        "name_en": "Se Qaleh",
        "latitude": "33.66777778",
        "longitude": "58.39722222"
    },
    {
        "id": "820345140",
        "name_fa": "کیانشهر",
        "name_en": "Kianshahr",
        "latitude": "31.13444444",
        "longitude": "56.39805556"
    },
    {
        "id": "820345142",
        "name_fa": "آیسک",
        "name_en": "Ayask",
        "latitude": "33.8875",
        "longitude": "58.3825"
    },
    {
        "id": "820345149",
        "name_fa": "شوسف",
        "name_en": "Shusef",
        "latitude": "31.80472222",
        "longitude": "60.01"
    },
    {
        "id": "820374305",
        "name_fa": "اردکان",
        "name_en": "Ardakan",
        "latitude": "30.263285743751",
        "longitude": "51.98341231731"
    },
    {
        "id": "820374319",
        "name_fa": "داریان",
        "name_en": "Darian",
        "latitude": "29.5625",
        "longitude": "52.930555555556"
    },
    {
        "id": "820417169",
        "name_fa": "بن",
        "name_en": "Ben",
        "latitude": "32.535833333333",
        "longitude": "50.747222222222"
    },
    {
        "id": "820417173",
        "name_fa": "لردگان",
        "name_en": "Lordegan",
        "latitude": "31.509722222222",
        "longitude": "50.828333333333"
    },
    {
        "id": "820417174",
        "name_fa": "مبارکه",
        "name_en": "Mobarakeh",
        "latitude": "32.346388888889",
        "longitude": "51.504444444444"
    },
    {
        "id": "820417182",
        "name_fa": "سامان",
        "name_en": "Saman",
        "latitude": "32.451388888889",
        "longitude": "50.911666666667"
    },
    {
        "id": "820417183",
        "name_fa": "کرکوند",
        "name_en": "Karkevand",
        "latitude": "32.345",
        "longitude": "51.446944444444"
    },
    {
        "id": "820417186",
        "name_fa": "چلگرد",
        "name_en": "Chelgerd",
        "latitude": "32.468055555556",
        "longitude": "50.121388888889"
    },
    {
        "id": "820417196",
        "name_fa": "فرادنبه",
        "name_en": "Faradanbeh",
        "latitude": "32.008333333333",
        "longitude": "51.212222222222"
    },
    {
        "id": "820417200",
        "name_fa": "اردل",
        "name_en": "Ardal",
        "latitude": "31.996111111111",
        "longitude": "50.656388888889"
    },
    {
        "id": "820417202",
        "name_fa": "فارسان",
        "name_en": "Farsan",
        "latitude": "32.256944444444",
        "longitude": "50.564166666667"
    },
    {
        "id": "820417203",
        "name_fa": "بلداجی",
        "name_en": "Boldaji",
        "latitude": "31.934166666667",
        "longitude": "51.057777777778"
    },
    {
        "id": "820856418",
        "name_fa": "خضرآباد",
        "name_en": "Khezrababd",
        "latitude": "31.86583333",
        "longitude": "53.95277778"
    },
    {
        "id": "820856419",
        "name_fa": "نیر",
        "name_en": "Nir",
        "latitude": "31.483889",
        "longitude": "54.1275"
    },
    {
        "id": "820856421",
        "name_fa": "ندوشن",
        "name_en": "Nadushan",
        "latitude": "32.03",
        "longitude": "53.55"
    },
    {
        "id": "820856427",
        "name_fa": "احمدآباد",
        "name_en": "Ahmadabad",
        "latitude": "32.359166666667",
        "longitude": "53.9925"
    },
    {
        "id": "820856430",
        "name_fa": "مهریز",
        "name_en": "Mehriz",
        "latitude": "31.583888888889",
        "longitude": "54.428055555556"
    },
    {
        "id": "820856435",
        "name_fa": "بهاباد",
        "name_en": "Behabad",
        "latitude": "31.87277778",
        "longitude": "56.02361111"
    },
    {
        "id": "820856439",
        "name_fa": "هرات",
        "name_en": "Harat",
        "latitude": "30.05416667",
        "longitude": "54.37305556"
    },
    {
        "id": "820856444",
        "name_fa": "تفت",
        "name_en": "Taft",
        "latitude": "31.743888888889",
        "longitude": "54.202777777778"
    },
    {
        "id": "820856450",
        "name_fa": "مروست",
        "name_en": "Marvast",
        "latitude": "30.47833333",
        "longitude": "54.21166667"
    },
    {
        "id": "820856452",
        "name_fa": "مهردشت",
        "name_en": "Mehrdasht",
        "latitude": "31.02277778",
        "longitude": "53.35638889"
    },
    {
        "id": "820873577",
        "name_fa": "برزک",
        "name_en": "Barzok",
        "latitude": "33.783333",
        "longitude": "51.233333"
    },
    {
        "id": "820873578",
        "name_fa": "زواره",
        "name_en": "Zavareh",
        "latitude": "33.448888888889",
        "longitude": "52.493611111111"
    },
    {
        "id": "820873579",
        "name_fa": "مهاباد",
        "name_en": "Mahabad",
        "latitude": "33.526944444444",
        "longitude": "52.212777777778"
    },
    {
        "id": "820873580",
        "name_fa": "چرمهین",
        "name_en": "Chermahin",
        "latitude": "32.3375",
        "longitude": "51.195833333333"
    },
    {
        "id": "820873581",
        "name_fa": "دیزیچه",
        "name_en": "Dizicheh",
        "latitude": "32.383333333333",
        "longitude": "51.514722222222"
    },
    {
        "id": "820873582",
        "name_fa": "ورنامخواست",
        "name_en": "Varnamkhast",
        "latitude": "32.356388888889",
        "longitude": "51.378611111111"
    },
    {
        "id": "820873583",
        "name_fa": "دهق",
        "name_en": "Dehagh",
        "latitude": "33.104444444444",
        "longitude": "50.958888888889"
    },
    {
        "id": "820873584",
        "name_fa": "چمگردان",
        "name_en": "Chamgordan",
        "latitude": "32.393333333333",
        "longitude": "51.340833333333"
    },
    {
        "id": "820873586",
        "name_fa": "خالدآباد",
        "name_en": "Khaledabad",
        "latitude": "33.705833333333",
        "longitude": "51.977777777778"
    },
    {
        "id": "820873589",
        "name_fa": "علویجه",
        "name_en": "Alavijeh",
        "latitude": "33.052777777778",
        "longitude": "51.0825"
    },
    {
        "id": "820873590",
        "name_fa": "باغ بهادران",
        "name_en": "Baq Bahadoran",
        "latitude": "32.377222222222",
        "longitude": "51.188055555556"
    },
    {
        "id": "820873591",
        "name_fa": "عسگران",
        "name_en": "Asgaran",
        "latitude": "32.86416667",
        "longitude": "50.85333333"
    },
    {
        "id": "820873593",
        "name_fa": "قمصر",
        "name_en": "Qamsar",
        "latitude": "33.753333333333",
        "longitude": "51.431944444444"
    },
    {
        "id": "820873594",
        "name_fa": "سده لنجان",
        "name_en": "Sedeh Lanjan",
        "latitude": "32.377777777778",
        "longitude": "51.318055555556"
    },
    {
        "id": "820873595",
        "name_fa": "فولادشهر",
        "name_en": "Fuladshahr",
        "latitude": "32.490555555556",
        "longitude": "51.421111111111"
    },
    {
        "id": "820885051",
        "name_fa": "فلاورجان",
        "name_en": "Falavarjan",
        "latitude": "32.555277777778",
        "longitude": "51.509722222222"
    },
    {
        "id": "820885057",
        "name_fa": "قهدریجان",
        "name_en": "Qahderijan",
        "latitude": "32.576666666667",
        "longitude": "51.455"
    },
    {
        "id": "820885064",
        "name_fa": "منظریه",
        "name_en": "Manzarieh",
        "latitude": "31.945833333333",
        "longitude": "51.871944444444"
    },
    {
        "id": "820885069",
        "name_fa": "محمدآباد",
        "name_en": "Mohammadabad",
        "latitude": "32.319722",
        "longitude": "52.100833"
    },
    {
        "id": "820885073",
        "name_fa": "پیربکران",
        "name_en": "Pir Bakran",
        "latitude": "32.468611111111",
        "longitude": "51.557777777778"
    },
    {
        "id": "820885075",
        "name_fa": "تیران",
        "name_en": "Tiran",
        "latitude": "32.7025",
        "longitude": "51.153611111111"
    },
    {
        "id": "820885076",
        "name_fa": "بهارستان",
        "name_en": "Baharestan",
        "latitude": "32.488055555556",
        "longitude": "51.773055555556"
    },
    {
        "id": "820885084",
        "name_fa": "گلدشت",
        "name_en": "Goldasht",
        "latitude": "32.626666666667",
        "longitude": "51.439166666667"
    },
    {
        "id": "820885085",
        "name_fa": "حبیب آباد",
        "name_en": "Habibabad",
        "latitude": "32.831666666667",
        "longitude": "51.776111111111"
    },
    {
        "id": "820885088",
        "name_fa": "دولت آباد",
        "name_en": "Dolatabad",
        "latitude": "32.799722222222",
        "longitude": "51.695555555556"
    },
    {
        "id": "820885097",
        "name_fa": "کلیشاد و سودرجان",
        "name_en": "Kelishad and Sudarjan",
        "latitude": "32.554166666667",
        "longitude": "51.525"
    },
    {
        "id": "820885101",
        "name_fa": "دستگرد",
        "name_en": "Dastgerd",
        "latitude": "32.801944444444",
        "longitude": "51.663611111111"
    },
    {
        "id": "820885106",
        "name_fa": "دهاقان",
        "name_en": "Dehaqan",
        "latitude": "31.94",
        "longitude": "51.647777777778"
    },
    {
        "id": "820885117",
        "name_fa": "ابریشم",
        "name_en": "Abrisham",
        "latitude": "32.555",
        "longitude": "51.573055555556"
    },
    {
        "id": "820885126",
        "name_fa": "گز برخوار",
        "name_en": "Gaz Borkhar",
        "latitude": "32.804722222222",
        "longitude": "51.620833333333"
    },
    {
        "id": "820885130",
        "name_fa": "کوشک",
        "name_en": "Kushk",
        "latitude": "32.6425",
        "longitude": "51.499722222222"
    },
    {
        "id": "820885139",
        "name_fa": "نصرآباد",
        "name_en": "Nasrabad",
        "latitude": "32.279444444444",
        "longitude": "52.063055555556"
    },
    {
        "id": "820983148",
        "name_fa": "نیک آباد",
        "name_en": "Nikabad",
        "latitude": "32.303055555556",
        "longitude": "52.205833333333"
    },
    {
        "id": "820983149",
        "name_fa": "هرند",
        "name_en": "Harand",
        "latitude": "32.562222222222",
        "longitude": "52.437222222222"
    },
    {
        "id": "820983151",
        "name_fa": "ورزنه",
        "name_en": "Varzaneh",
        "latitude": "32.419444444444",
        "longitude": "52.648055555556"
    },
    {
        "id": "821009013",
        "name_fa": "شازند",
        "name_en": "Shazand",
        "latitude": "33.9275",
        "longitude": "49.411388888889"
    },
    {
        "id": "821009025",
        "name_fa": "گوگد",
        "name_en": "Guged",
        "latitude": "33.475555555556",
        "longitude": "50.3525"
    },
    {
        "id": "821009031",
        "name_fa": "تفرش",
        "name_en": "Tafresh",
        "latitude": "34.693055555556",
        "longitude": "50.016111111111"
    },
    {
        "id": "821009042",
        "name_fa": "هندودر",
        "name_en": "Hendodar",
        "latitude": "33.77916667",
        "longitude": "49.23111111"
    },
    {
        "id": "821009047",
        "name_fa": "حسن آباد",
        "name_en": "Hasanabad",
        "latitude": "32.138611111111",
        "longitude": "52.626666666667"
    },
    {
        "id": "821009063",
        "name_fa": "گلپایگان",
        "name_en": "Golpayegan",
        "latitude": "33.453611111111",
        "longitude": "50.288333333333"
    },
    {
        "id": "821009075",
        "name_fa": "آشتیان",
        "name_en": "Ashtian",
        "latitude": "34.523055555556",
        "longitude": "50.006111111111"
    },
    {
        "id": "821009081",
        "name_fa": "آستانه",
        "name_en": "Astaneh",
        "latitude": "33.890555555556",
        "longitude": "49.357777777778"
    },
    {
        "id": "821009094",
        "name_fa": "کوهپایه",
        "name_en": "Koohpayeh",
        "latitude": "32.71361111",
        "longitude": "52.43972222"
    },
    {
        "id": "821009102",
        "name_fa": "اژیه",
        "name_en": "Ezhieh",
        "latitude": "32.44027778",
        "longitude": "52.37972222"
    },
    {
        "id": "821009117",
        "name_fa": "خوانسار",
        "name_en": "Khansar",
        "latitude": "33.220555555556",
        "longitude": "50.315"
    },
    {
        "id": "821045212",
        "name_fa": "دستجرد",
        "name_en": "Dastjerd",
        "latitude": "34.55194444",
        "longitude": "50.24833333"
    },
    {
        "id": "821045213",
        "name_fa": "خنداب",
        "name_en": "Khondab",
        "latitude": "34.392777777778",
        "longitude": "49.183888888889"
    },
    {
        "id": "821045214",
        "name_fa": "مأمونیه",
        "name_en": "Ma'muniyeh",
        "latitude": "35.298888888889",
        "longitude": "50.511666666667"
    },
    {
        "id": "821045215",
        "name_fa": "کهک",
        "name_en": "Kahak",
        "latitude": "34.39388889",
        "longitude": "50.86416667"
    },
    {
        "id": "821045216",
        "name_fa": "فرمهین",
        "name_en": "Farmahin",
        "latitude": "34.50388889",
        "longitude": "49.68444444"
    },
    {
        "id": "821045217",
        "name_fa": "قورچی باشی",
        "name_en": "Qurchbashi",
        "latitude": "33.65277778",
        "longitude": "49.87277778"
    },
    {
        "id": "821045220",
        "name_fa": "زاویه",
        "name_en": "Zavieh",
        "latitude": "35.383055555556",
        "longitude": "50.565555555556"
    },
    {
        "id": "821045221",
        "name_fa": "کمیجان",
        "name_en": "Komijan",
        "latitude": "34.721388888889",
        "longitude": "49.326666666667"
    },
    {
        "id": "821045223",
        "name_fa": "داوودآباد",
        "name_en": "Davudabad",
        "latitude": "34.293333333333",
        "longitude": "49.856388888889"
    },
    {
        "id": "821096685",
        "name_fa": "پرندک",
        "name_en": "Parandak",
        "latitude": "35.3625",
        "longitude": "50.683055555556"
    },
    {
        "id": "821096690",
        "name_fa": "شهر ری",
        "name_en": "Rey",
        "latitude": "35.5975",
        "longitude": "51.434444444444"
    },
    {
        "id": "821096700",
        "name_fa": "لواسان",
        "name_en": "Lavasan",
        "latitude": "35.821666666667",
        "longitude": "51.644444444444"
    },
    {
        "id": "821096703",
        "name_fa": "قنوات",
        "name_en": "Qanavat",
        "latitude": "34.61416667",
        "longitude": "51.02861111"
    },
    {
        "id": "821096717",
        "name_fa": "پردیس",
        "name_en": "Pardis",
        "latitude": "35.737777777778",
        "longitude": "51.815555555556"
    },
    {
        "id": "821096745",
        "name_fa": "کهریزک",
        "name_en": "Kahrizak",
        "latitude": "35.5175",
        "longitude": "51.35972222"
    },
    {
        "id": "821096751",
        "name_fa": "باقرشهر",
        "name_en": "Baqershahr",
        "latitude": "35.5325",
        "longitude": "51.4025"
    },
    {
        "id": "821096755",
        "name_fa": "رباط کریم",
        "name_en": "Robat Karim",
        "latitude": "35.484722222222",
        "longitude": "51.082777777778"
    },
    {
        "id": "821096768",
        "name_fa": "مهستان",
        "name_en": "Mehestan",
        "latitude": "35.989166666667",
        "longitude": "50.745"
    },
    {
        "id": "821825746",
        "name_fa": "چترود",
        "name_en": "Chatroud",
        "latitude": "30.60388889",
        "longitude": "56.91027778"
    },
    {
        "id": "821825752",
        "name_fa": "کاظم آباد",
        "name_en": "Kazemabad",
        "latitude": "30.56666667",
        "longitude": "56.845"
    },
    {
        "id": "831526650",
        "name_fa": "سنقر",
        "name_en": "Sonqor",
        "latitude": "34.783611111111",
        "longitude": "47.600277777778"
    },
    {
        "id": "831542471",
        "name_fa": "سریش آباد",
        "name_en": "Serishabad",
        "latitude": "35.25",
        "longitude": "47.778055555556"
    },
    {
        "id": "831561999",
        "name_fa": "دیواندره",
        "name_en": "Divandarreh",
        "latitude": "35.913888888889",
        "longitude": "47.023888888889"
    },
    {
        "id": "831794646",
        "name_fa": "محمدیار",
        "name_en": "Mohammadyar",
        "latitude": "36.98611111",
        "longitude": "45.51694444"
    },
    {
        "id": "832423725",
        "name_fa": "قوشچی",
        "name_en": "Qushchi",
        "latitude": "37.99222222",
        "longitude": "45.03833333"
    },
    {
        "id": "832431037",
        "name_fa": "تسوج",
        "name_en": "Tasuj",
        "latitude": "38.316944444444",
        "longitude": "45.359166666667"
    },
    {
        "id": "832431618",
        "name_fa": "شندآباد",
        "name_en": "Shendabad",
        "latitude": "38.138333333333",
        "longitude": "45.611388888889"
    },
    {
        "id": "832431703",
        "name_fa": "وایقان",
        "name_en": "Vayqan",
        "latitude": "38.129444444444",
        "longitude": "45.713055555556"
    },
    {
        "id": "832440505",
        "name_fa": "هوراند",
        "name_en": "Hurand",
        "latitude": "38.859166666667",
        "longitude": "47.368611111111"
    },
    {
        "id": "832452957",
        "name_fa": "بیله سوار",
        "name_en": "Bilasuvar",
        "latitude": "39.378611111111",
        "longitude": "48.361666666667"
    },
    {
        "id": "832464380",
        "name_fa": "گرمی",
        "name_en": "Germi",
        "latitude": "39.021388888889",
        "longitude": "48.08"
    },
    {
        "id": "832464815",
        "name_fa": "مشگین شهر",
        "name_en": "Meshginshahr",
        "latitude": "38.398888888889",
        "longitude": "47.681944444444"
    },
    {
        "id": "833694432",
        "name_fa": "اسکو",
        "name_en": "Osku",
        "latitude": "37.915833333333",
        "longitude": "46.123611111111"
    },
    {
        "id": "833695103",
        "name_fa": "ایلخچی",
        "name_en": "Ilkhchi",
        "latitude": "37.937222222222",
        "longitude": "45.978888888889"
    },
    {
        "id": "833700316",
        "name_fa": "ممقان",
        "name_en": "Mamqan",
        "latitude": "37.843055555556",
        "longitude": "45.975833333333"
    },
    {
        "id": "833701024",
        "name_fa": "گوگان",
        "name_en": "Gugan",
        "latitude": "37.783055555556",
        "longitude": "45.903888888889"
    },
    {
        "id": "833704722",
        "name_fa": "عجب‌ شیر",
        "name_en": "Ajab Shir",
        "latitude": "37.4775",
        "longitude": "45.894166666667"
    },
    {
        "id": "835139171",
        "name_fa": "کندر",
        "name_en": "Kondor",
        "latitude": "35.211944444444",
        "longitude": "58.151666666667"
    },
    {
        "id": "835139172",
        "name_fa": "رضویه",
        "name_en": "Razaviyeh",
        "latitude": "36.20583333",
        "longitude": "59.76972222"
    },
    {
        "id": "835139180",
        "name_fa": "جنگل",
        "name_en": "Jangal",
        "latitude": "34.70333333",
        "longitude": "59.22277778"
    },
    {
        "id": "835139183",
        "name_fa": "یونسی",
        "name_en": "Yoonesi",
        "latitude": "34.805277777778",
        "longitude": "58.4375"
    },
    {
        "id": "835139184",
        "name_fa": "دولت آباد",
        "name_en": "Dowlatabad",
        "latitude": "35.282222",
        "longitude": "59.519722"
    },
    {
        "id": "835139189",
        "name_fa": "قدمگاه",
        "name_en": "Ghadamgah",
        "latitude": "36.10638889",
        "longitude": "59.06083333"
    },
    {
        "id": "835139191",
        "name_fa": "جغتای",
        "name_en": "Joghatay",
        "latitude": "36.636111111111",
        "longitude": "57.072777777778"
    },
    {
        "id": "835139193",
        "name_fa": "نیل شهر",
        "name_en": "Nilshahr",
        "latitude": "35.12638889",
        "longitude": "60.7725"
    },
    {
        "id": "835139196",
        "name_fa": "نصرآباد",
        "name_en": "Nasrabad",
        "latitude": "35.41805556",
        "longitude": "60.31611111"
    },
    {
        "id": "835139199",
        "name_fa": "ریوش",
        "name_en": "Rivash",
        "latitude": "35.475277777778",
        "longitude": "58.457222222222"
    },
    {
        "id": "835139205",
        "name_fa": "فرهادگرد",
        "name_en": "Farhad Gerd",
        "latitude": "35.76583333",
        "longitude": "59.73361111"
    },
    {
        "id": "835139206",
        "name_fa": "نقاب",
        "name_en": "Neqab",
        "latitude": "36.70805556",
        "longitude": "57.42138889"
    },
    {
        "id": "835139207",
        "name_fa": "مشهد ریزه",
        "name_en": "Mashhad Rizeh",
        "latitude": "34.79222222",
        "longitude": "60.505"
    },
    {
        "id": "835139212",
        "name_fa": "صالح آباد",
        "name_en": "Salehabad",
        "latitude": "35.68805556",
        "longitude": "61.09555556"
    },
    {
        "id": "835139217",
        "name_fa": "ملک آباد",
        "name_en": "Malekabad",
        "latitude": "36.00111111",
        "longitude": "59.59166667"
    },
    {
        "id": "835139223",
        "name_fa": "عشق آباد",
        "name_en": "Eshqabad",
        "latitude": "36.043055555556",
        "longitude": "58.6825"
    },
    {
        "id": "835139225",
        "name_fa": "ششتمد",
        "name_en": "Sheshtamad",
        "latitude": "35.95972222",
        "longitude": "57.76666667"
    },
    {
        "id": "835139229",
        "name_fa": "سفید سنگ",
        "name_en": "Sefid Sang",
        "latitude": "35.65944444",
        "longitude": "60.09472222"
    },
    {
        "id": "835139231",
        "name_fa": "نوخندان",
        "name_en": "Nokhandan",
        "latitude": "37.52027778",
        "longitude": "58.98916667"
    },
    {
        "id": "835139234",
        "name_fa": "قاسم آباد",
        "name_en": "Qasemabad",
        "latitude": "34.362222222222",
        "longitude": "59.866388888889"
    },
    {
        "id": "835139239",
        "name_fa": "کاخک",
        "name_en": "Kakhk",
        "latitude": "34.14972222",
        "longitude": "58.63916667"
    },
    {
        "id": "835139241",
        "name_fa": "چکنه",
        "name_en": "Chekneh",
        "latitude": "36.81777778",
        "longitude": "58.50416667"
    },
    {
        "id": "835139242",
        "name_fa": "روداب",
        "name_en": "Rudab",
        "latitude": "35.61638889",
        "longitude": "57.30277778"
    },
    {
        "id": "835139247",
        "name_fa": "فیروزه",
        "name_en": "Firuzeh",
        "latitude": "36.28583333",
        "longitude": "58.58611111"
    },
    {
        "id": "835139251",
        "name_fa": "قلندرآباد",
        "name_en": "Qalandarabad",
        "latitude": "35.59916667",
        "longitude": "59.95"
    },
    {
        "id": "835139255",
        "name_fa": "درود",
        "name_en": "Darrud",
        "latitude": "36.139444444444",
        "longitude": "59.117222222222"
    },
    {
        "id": "835139257",
        "name_fa": "باجگیران",
        "name_en": "Bajgiran",
        "latitude": "37.62166667",
        "longitude": "58.41805556"
    },
    {
        "id": "835228202",
        "name_fa": "زهان",
        "name_en": "Zohan",
        "latitude": "33.413888888889",
        "longitude": "59.797777777778"
    },
    {
        "id": "835228205",
        "name_fa": "نیمبلوک",
        "name_en": "Nimbeluk",
        "latitude": "33.91083333",
        "longitude": "58.93111111"
    },
    {
        "id": "835228208",
        "name_fa": "آرین شهر",
        "name_en": "Arianshahr",
        "latitude": "33.33166667",
        "longitude": "59.23305556"
    },
    {
        "id": "835228213",
        "name_fa": "سرایان",
        "name_en": "Sarayan",
        "latitude": "33.860277777778",
        "longitude": "58.521666666667"
    },
    {
        "id": "835451768",
        "name_fa": "شوقان",
        "name_en": "Shuqan",
        "latitude": "37.34194444",
        "longitude": "56.88694444"
    },
    {
        "id": "835451771",
        "name_fa": "سنخواست",
        "name_en": "Sankhast",
        "latitude": "37.09916667",
        "longitude": "56.85194444"
    },
    {
        "id": "835451779",
        "name_fa": "پیش قلعه",
        "name_en": "Pish Qaleh",
        "latitude": "37.65194444",
        "longitude": "57.00194444"
    },
    {
        "id": "835451789",
        "name_fa": "صفی آباد",
        "name_en": "Safiabad",
        "latitude": "36.69611111",
        "longitude": "57.93"
    },
    {
        "id": "835451791",
        "name_fa": "لوجلی",
        "name_en": "Lujli",
        "latitude": "37.60805556",
        "longitude": "57.8575"
    },
    {
        "id": "835451797",
        "name_fa": "راز",
        "name_en": "Raz",
        "latitude": "37.93388889",
        "longitude": "57.1125"
    },
    {
        "id": "835451802",
        "name_fa": "درق",
        "name_en": "Daraq",
        "latitude": "36.96944444",
        "longitude": "56.26111111"
    },
    {
        "id": "835482220",
        "name_fa": "نوده خاندوز",
        "name_en": "Now Deh Khanduz",
        "latitude": "37.07638889",
        "longitude": "55.2625"
    },
    {
        "id": "835482222",
        "name_fa": "نگین شهر",
        "name_en": "Neginshahr",
        "latitude": "37.13916667",
        "longitude": "55.16388889"
    },
    {
        "id": "835482245",
        "name_fa": "نوکنده",
        "name_en": "Nokandeh",
        "latitude": "36.7375",
        "longitude": "53.90888889"
    },
    {
        "id": "835482253",
        "name_fa": "انبارآلوم",
        "name_en": "Anbarolum",
        "latitude": "37.13333333",
        "longitude": "54.61666667"
    },
    {
        "id": "835482255",
        "name_fa": "دلند",
        "name_en": "Daland",
        "latitude": "37.03611111",
        "longitude": "55.04777778"
    },
    {
        "id": "835482269",
        "name_fa": "آق قلا",
        "name_en": "Aghghala",
        "latitude": "37.01388889",
        "longitude": "54.455"
    },
    {
        "id": "835492674",
        "name_fa": "ایواوغلی",
        "name_en": "Ivughli",
        "latitude": "38.714444444444",
        "longitude": "45.205555555556"
    },
    {
        "id": "835537421",
        "name_fa": "کوهی خیل",
        "name_en": "Kuhi Kheyl",
        "latitude": "36.68888889",
        "longitude": "52.91027778"
    },
    {
        "id": "835537432",
        "name_fa": "مرزن آباد",
        "name_en": "Marzan Abad",
        "latitude": "36.453055555556",
        "longitude": "51.300555555556"
    },
    {
        "id": "835537436",
        "name_fa": "پل سفید",
        "name_en": "Pol-e Sefid",
        "latitude": "36.117777777778",
        "longitude": "53.055277777778"
    },
    {
        "id": "835537445",
        "name_fa": "سلمان شهر",
        "name_en": "Salman Shahr",
        "latitude": "36.703333333333",
        "longitude": "51.195833333333"
    },
    {
        "id": "835537446",
        "name_fa": "چمستان",
        "name_en": "Chamestan",
        "latitude": "36.4773762",
        "longitude": "52.1167325"
    },
    {
        "id": "835537454",
        "name_fa": "گتاب",
        "name_en": "Gatab",
        "latitude": "36.41861111",
        "longitude": "52.65083333"
    },
    {
        "id": "835537455",
        "name_fa": "خلیل شهر",
        "name_en": "Khalil Shahr",
        "latitude": "36.686666666667",
        "longitude": "53.646388888889"
    },
    {
        "id": "835537460",
        "name_fa": "زرگر شهر",
        "name_en": "Zargarshahr",
        "latitude": "36.5214",
        "longitude": "52.5756"
    },
    {
        "id": "835537465",
        "name_fa": "زیرآب",
        "name_en": "Zirab",
        "latitude": "36.179722222222",
        "longitude": "52.976944444444"
    },
    {
        "id": "835537466",
        "name_fa": "دابودشت",
        "name_en": "Daboodasht",
        "latitude": "36.484444444444",
        "longitude": "52.451666666667"
    },
    {
        "id": "835537475",
        "name_fa": "بلده",
        "name_en": "Baladeh",
        "latitude": "36.201944444444",
        "longitude": "51.81"
    },
    {
        "id": "835537478",
        "name_fa": "سورک",
        "name_en": "Surak",
        "latitude": "36.595",
        "longitude": "53.2075"
    },
    {
        "id": "835537489",
        "name_fa": "مرزیکلا",
        "name_en": "Marzikola",
        "latitude": "36.365",
        "longitude": "52.73444444"
    },
    {
        "id": "835537493",
        "name_fa": "رستم کلا",
        "name_en": "Rostamkola",
        "latitude": "36.677777777778",
        "longitude": "53.428611111111"
    },
    {
        "id": "835537502",
        "name_fa": "عباس آباد",
        "name_en": "Abbasabad",
        "latitude": "36.727777777778",
        "longitude": "51.105833333333"
    },
    {
        "id": "835537508",
        "name_fa": "فریم",
        "name_en": "Farim",
        "latitude": "36.173055555556",
        "longitude": "53.268055555556"
    },
    {
        "id": "835537509",
        "name_fa": "شیرگاه",
        "name_en": "Shirgah",
        "latitude": "36.298333333333",
        "longitude": "52.889166666667"
    },
    {
        "id": "835537510",
        "name_fa": "خوشرودپی",
        "name_en": "Khush Rudpey",
        "latitude": "36.36944444",
        "longitude": "52.56527778"
    },
    {
        "id": "835537511",
        "name_fa": "هادی شهر",
        "name_en": "Hadishahr",
        "latitude": "36.64166667",
        "longitude": "52.62916667"
    },
    {
        "id": "835537512",
        "name_fa": "نشتارود",
        "name_en": "Nashtarood",
        "latitude": "36.754166666667",
        "longitude": "51.010277777778"
    },
    {
        "id": "836278257",
        "name_fa": "کوچصفهان",
        "name_en": "Kuchesfahan",
        "latitude": "37.278333333333",
        "longitude": "49.772777777778"
    },
    {
        "id": "836358799",
        "name_fa": "داران",
        "name_en": "Daran",
        "latitude": "32.988611111111",
        "longitude": "50.4125"
    },
    {
        "id": "836420723",
        "name_fa": "باباحیدر",
        "name_en": "Babaheydar",
        "latitude": "32.328055555556",
        "longitude": "50.476111111111"
    },
    {
        "id": "836434376",
        "name_fa": "امیریه",
        "name_en": "Amiriyeh",
        "latitude": "36.027777777778",
        "longitude": "54.14"
    },
    {
        "id": "836434377",
        "name_fa": "کلاته خیج",
        "name_en": "Kalateh Khij",
        "latitude": "36.67111111",
        "longitude": "55.2975"
    },
    {
        "id": "836434378",
        "name_fa": "بیارجمند",
        "name_en": "Beyarjmand",
        "latitude": "36.080555555556",
        "longitude": "55.809722222222"
    },
    {
        "id": "836434379",
        "name_fa": "آرادان",
        "name_en": "Aradan",
        "latitude": "35.249722222222",
        "longitude": "52.493333333333"
    },
    {
        "id": "836434381",
        "name_fa": "مجن",
        "name_en": "Mojen",
        "latitude": "36.48",
        "longitude": "54.64583333"
    },
    {
        "id": "836434382",
        "name_fa": "سرخه",
        "name_en": "Sorkheh",
        "latitude": "35.463333333333",
        "longitude": "53.213888888889"
    },
    {
        "id": "836465146",
        "name_fa": "عشق آباد",
        "name_en": "Eshqabad",
        "latitude": "34.36694444",
        "longitude": "56.93111111"
    },
    {
        "id": "836465148",
        "name_fa": "شاهدیه",
        "name_en": "Shahediyeh",
        "latitude": "31.94138889",
        "longitude": "54.28277778"
    },
    {
        "id": "836539715",
        "name_fa": "فارغان",
        "name_en": "Fareghan",
        "latitude": "28.009444444444",
        "longitude": "56.253333333333"
    },
    {
        "id": "836539732",
        "name_fa": "بستک",
        "name_en": "Bastak",
        "latitude": "27.199166666667",
        "longitude": "54.366666666667"
    },
    {
        "id": "836539736",
        "name_fa": "فین",
        "name_en": "Fin",
        "latitude": "27.63222222",
        "longitude": "55.88527778"
    },
    {
        "id": "836539753",
        "name_fa": "جناح",
        "name_en": "Jenah",
        "latitude": "27.02",
        "longitude": "54.283888888889"
    },
    {
        "id": "836539766",
        "name_fa": "هشت‌بندی",
        "name_en": "Hashtbandi",
        "latitude": "27.155555555556",
        "longitude": "57.430555555556"
    },
    {
        "id": "836539778",
        "name_fa": "درگهان",
        "name_en": "Dargahan",
        "latitude": "26.963055555556",
        "longitude": "56.062777777778"
    },
    {
        "id": "836539788",
        "name_fa": "زیارتعلی",
        "name_en": "Ziaratali",
        "latitude": "27.742222222222",
        "longitude": "57.223888888889"
    },
    {
        "id": "836539800",
        "name_fa": "رودان",
        "name_en": "Roudan",
        "latitude": "27.440555555556",
        "longitude": "57.192222222222"
    },
    {
        "id": "836539801",
        "name_fa": "پارسیان",
        "name_en": "Parsian",
        "latitude": "27.20833333",
        "longitude": "53.03611111"
    },
    {
        "id": "836539833",
        "name_fa": "بندر چارک",
        "name_en": "Bandar Charak",
        "latitude": "26.730555555556",
        "longitude": "54.274722222222"
    },
    {
        "id": "836539837",
        "name_fa": "سوزا",
        "name_en": "Suza",
        "latitude": "26.780833333333",
        "longitude": "56.063055555556"
    },
    {
        "id": "836539842",
        "name_fa": "بندر خمیر",
        "name_en": "Bandar Khamir",
        "latitude": "26.95222222",
        "longitude": "55.585"
    },
    {
        "id": "836539846",
        "name_fa": "سیریک",
        "name_en": "Seerik",
        "latitude": "26.516666666667",
        "longitude": "57.102777777778"
    },
    {
        "id": "836539870",
        "name_fa": "حاجی آباد",
        "name_en": "Hajjiabad",
        "latitude": "28.309166666667",
        "longitude": "55.901666666667"
    },
    {
        "id": "836764089",
        "name_fa": "آب پخش",
        "name_en": "Ab Pakhsh",
        "latitude": "29.358611111111",
        "longitude": "51.074166666667"
    },
    {
        "id": "836764093",
        "name_fa": "بردخون",
        "name_en": "Bordekhoon",
        "latitude": "28.063388888889",
        "longitude": "51.477416666667"
    },
    {
        "id": "836764114",
        "name_fa": "آبدان",
        "name_en": "Abedan",
        "latitude": "28.078611111111",
        "longitude": "51.766944444444"
    },
    {
        "id": "836764122",
        "name_fa": "شبانکاره",
        "name_en": "Shabankareh",
        "latitude": "29.472222222222",
        "longitude": "50.995277777778"
    },
    {
        "id": "836764139",
        "name_fa": "کلمه",
        "name_en": "Kalameh",
        "latitude": "28.943333333333",
        "longitude": "51.459444444444"
    },
    {
        "id": "836764152",
        "name_fa": "سعدآباد",
        "name_en": "Saadabad",
        "latitude": "29.384444444444",
        "longitude": "51.114722222222"
    },
    {
        "id": "836764160",
        "name_fa": "نخل تقی",
        "name_en": "Nakhl-e Taghi",
        "latitude": "27.4975",
        "longitude": "52.586666666667"
    },
    {
        "id": "836764166",
        "name_fa": "بندر امام حسن",
        "name_en": "Bandar Imam Hasan",
        "latitude": "29.8425",
        "longitude": "50.263055555556"
    },
    {
        "id": "836764183",
        "name_fa": "ریز",
        "name_en": "Riz",
        "latitude": "28.0525",
        "longitude": "52.0725"
    },
    {
        "id": "836764188",
        "name_fa": "دلوار",
        "name_en": "Delvar",
        "latitude": "28.7625",
        "longitude": "51.069722222222"
    },
    {
        "id": "836764208",
        "name_fa": "وحدتیه",
        "name_en": "Vahdatiyeh",
        "latitude": "29.482222222222",
        "longitude": "51.236666666667"
    },
    {
        "id": "836764214",
        "name_fa": "تنگ ارم",
        "name_en": "Tang-e Eram",
        "latitude": "29.1525",
        "longitude": "51.5281"
    },
    {
        "id": "836764246",
        "name_fa": "اَهرَم",
        "name_en": "Ahram",
        "latitude": "28.8825",
        "longitude": "51.274722222222"
    },
    {
        "id": "837357443",
        "name_fa": "اسالم",
        "name_en": "Asalem",
        "latitude": "37.730555555556",
        "longitude": "48.953611111111"
    },
    {
        "id": "837358119",
        "name_fa": "خلخال",
        "name_en": "Khalkhal",
        "latitude": "37.618888888889",
        "longitude": "48.525833333333"
    },
    {
        "id": "840769598",
        "name_fa": "لیکک",
        "name_en": "Likak",
        "latitude": "30.895",
        "longitude": "50.093055555556"
    },
    {
        "id": "840769623",
        "name_fa": "دهدشت",
        "name_en": "Dehdasht",
        "latitude": "30.793611111111",
        "longitude": "50.565"
    },
    {
        "id": "840769631",
        "name_fa": "لنده",
        "name_en": "Landeh",
        "latitude": "30.981666666667",
        "longitude": "50.423333333333"
    },
    {
        "id": "840769638",
        "name_fa": "دیشموک",
        "name_en": "Dishmuk",
        "latitude": "31.297222222222",
        "longitude": "50.398888888889"
    },
    {
        "id": "840769644",
        "name_fa": "چرام",
        "name_en": "Charam",
        "latitude": "30.753333333333",
        "longitude": "50.743611111111"
    },
    {
        "id": "840769651",
        "name_fa": "مارگون",
        "name_en": "Margown",
        "latitude": "30.992777777778",
        "longitude": "51.083611111111"
    },
    {
        "id": "840769672",
        "name_fa": "سوق",
        "name_en": "Suq",
        "latitude": "30.858611111111",
        "longitude": "50.458055555556"
    },
    {
        "id": "840769678",
        "name_fa": "قلعه رئیسی",
        "name_en": "Qal'eh Raisi",
        "latitude": "31.19",
        "longitude": "50.44194444"
    },
    {
        "id": "840769683",
        "name_fa": "گراب سفلی",
        "name_en": "Garab-e Sofla",
        "latitude": "30.94722222",
        "longitude": "50.88777778"
    },
    {
        "id": "842111318",
        "name_fa": "کومله",
        "name_en": "Kumeleh",
        "latitude": "37.152778",
        "longitude": "50.176944"
    },
    {
        "id": "842111356",
        "name_fa": "سنگر",
        "name_en": "Sangar",
        "latitude": "37.18111111",
        "longitude": "49.69388889"
    },
    {
        "id": "842111373",
        "name_fa": "لوندویل",
        "name_en": "Lavandevil",
        "latitude": "38.30888889",
        "longitude": "48.87083333"
    },
    {
        "id": "842111433",
        "name_fa": "گوراب زرمیخ",
        "name_en": "Gorabzarmikh",
        "latitude": "37.30416667",
        "longitude": "49.2225"
    },
    {
        "id": "842111462",
        "name_fa": "احمدسر گوراب",
        "name_en": "Ahmadsar Gurab",
        "latitude": "37.12805556",
        "longitude": "49.36666667"
    },
    {
        "id": "842111537",
        "name_fa": "جیرنده",
        "name_en": "Jirandeh",
        "latitude": "36.7",
        "longitude": "49.791666666667"
    },
    {
        "id": "842111591",
        "name_fa": "حویق",
        "name_en": "Haviq",
        "latitude": "38.1475",
        "longitude": "48.89222222"
    },
    {
        "id": "842111611",
        "name_fa": "خمام",
        "name_en": "Khomam",
        "latitude": "37.4",
        "longitude": "49.666667"
    },
    {
        "id": "842111651",
        "name_fa": "شلمان",
        "name_en": "Shalman",
        "latitude": "37.15527778",
        "longitude": "50.21611111"
    },
    {
        "id": "842111680",
        "name_fa": "توتکابن",
        "name_en": "Tutkabon",
        "latitude": "36.8928",
        "longitude": "49.5272"
    },
    {
        "id": "842111720",
        "name_fa": "خشک بیجار",
        "name_en": "Khoshkebijar",
        "latitude": "37.37472222",
        "longitude": "49.7575"
    },
    {
        "id": "842111727",
        "name_fa": "شفت",
        "name_en": "Shaft",
        "latitude": "37.170277777778",
        "longitude": "49.399722222222"
    },
    {
        "id": "842111746",
        "name_fa": "دیلمان",
        "name_en": "Deylaman",
        "latitude": "36.88888889",
        "longitude": "49.90555556"
    },
    {
        "id": "842111811",
        "name_fa": "اُطاقوَر",
        "name_en": "Otaqvar",
        "latitude": "37.109444444444",
        "longitude": "50.114166666667"
    },
    {
        "id": "842111819",
        "name_fa": "ماسال",
        "name_en": "Masal",
        "latitude": "37.363055555556",
        "longitude": "49.132777777778"
    },
    {
        "id": "842164154",
        "name_fa": "کوراییم",
        "name_en": "Kuraiem",
        "latitude": "37.955",
        "longitude": "48.235555555556"
    },
    {
        "id": "842164156",
        "name_fa": "لاهرود",
        "name_en": "Lahrud",
        "latitude": "38.510833333333",
        "longitude": "47.832222222222"
    },
    {
        "id": "842164163",
        "name_fa": "عنبران",
        "name_en": "Anbaran",
        "latitude": "38.4875",
        "longitude": "48.431944444444"
    },
    {
        "id": "842164176",
        "name_fa": "هشجین",
        "name_en": "Hashjin",
        "latitude": "37.359722222222",
        "longitude": "48.316111111111"
    },
    {
        "id": "842164182",
        "name_fa": "هیر",
        "name_en": "Hir",
        "latitude": "38.07861111",
        "longitude": "48.505"
    },
    {
        "id": "842164187",
        "name_fa": "نیر",
        "name_en": "Nir",
        "latitude": "38.034722222222",
        "longitude": "47.998611111111"
    },
    {
        "id": "842164195",
        "name_fa": "جعفر آباد",
        "name_en": "Jafarabad",
        "latitude": "39.646944444444",
        "longitude": "48.039722222222"
    },